stop_id,stop_code,stop_name,stop_desc,stop_lat,stop_lon,zone_id,stop_url,location_type,parent_station
3486:1,,Nicolls Rd/Buchanan Ave,,40.760712,-73.35397,,,0,
2826:1,,Montauk Hwy/Bernice Dr,,40.746847,-73.055111,,,0,
3015:1,,Montauk Hwy/Woodlawn Ave,,40.809988,-72.757811,,,0,
3287:1,,Carleton Ave/N Research Pl,,40.774243,-73.19892,,,0,
46891,,Patchogue-Holbrook Rd/Broadway Ave,,40.803731,-73.068569,,,0,
2568:1,,Union Blvd/Penataquit Ave,,40.72847800000001,-73.238317,,,0,
2277:1,,Middle Country Rd/Marshall Dr,,40.86211200000001,-73.059794,,,0,
1553:1,,Oser Ave/Adams Ave,,40.816625,-73.256626,,,0,
46811,,Belle Terre Rd/Princess Tree Ct,,40.943247,-73.05726199999998,,,0,
3554:1,,Grand Blvd/Carlls Path,,40.758849,-73.320864,,,0,
2976:1,,NYS 112/Southaven Ave,,40.800959,-73.00511299999998,,,0,
3963:1,,College Rd/Portion Rd,,40.836476,-73.053863,,,0,
1008:1,,NYS 110/E Lyons St,,40.806328,-73.410144,,,0,
1235:1,,E Industry Ct/Grand Blvd,,40.761162,-73.29705,,,0,
3163:1,,Montauk Hwy/Great Neck Rd,,40.669003,-73.393413,,,0,
2416:1,,Circle Rd/Campus Dr,,40.91303700000001,-73.129037,,,0,
3962:1,,Portion Rd/Morris Ave,,40.835,-73.062129,,,0,
46981,,Beach Ln/W Yaphank Rd,,40.86878,-72.976783,,,0,
2039:1,,Seymour Ln/W Yaphank Rd,,40.858047,-72.978025,,,0,
1521:1,,Jericho Tpk/Rural Pl,,40.841767,-73.304839,,,0,
44161,,Vets Hwy/Lincoln Blvd,,40.81874,-73.199627,,,0,
3599:1,,Bay Shore Rd/Bay Shore Ave,,40.738762,-73.29254,,,0,
2661:1,,NYS 347/Gibbs Pond Rd,,40.852743,-73.15145099999998,,,0,
1780:1,,Kings Park HS Fields,,40.884341,-73.244714,,,0,
48491,,Brookhaven Landfill,,40.800641,-72.922563,,,0,
45811,,Grand Blvd/Marcus Blvd,,40.759924,-73.31604,,,0,
2364:1,,Montauk Hwy/Atlantic Ave,,40.804747,-72.761156,,,0,
2345:1,,E Suffolk Ave/Gibbs Rd,,40.794028,-73.186521,,,0,
3754:1,,Montauk Hwy/Marilynn St,,40.734065,-73.176969,,,0,
44741,,Ocean Ave/Express Dr N,,40.813492,-73.12537,,,0,
1736:1,,Vets Hwy/New Hwy,,40.8256,-73.236176,,,0,
2378:1,,Sills Rd/Horseblock Rd,,40.810808,-72.952966,,,0,
44241,,Belmont Ave/Kenyon Ave,,40.71027200000001,-73.348792,,,0,
2745:1,,New York Ave/Edison Dr,,40.816714,-73.407931,,,0,
3023:1,,William Floyd Pkwy/Tudor Rd,,40.793292,-72.86464599999998,,,0,
4282:1,,E Main St/Prospect Pl,,40.924293,-72.651262,,,0,
45371,,2nd St/Station Rd,,40.760711,-72.939718,,,0,
2174:1,,W Main St/Winters Ln,,40.917147,-72.68104599999998,,,0,
47611,,Amityville LIRR,,40.680307,-73.42063,,,0,
2818:1,,Montauk Hwy/N Windsor Ave,,40.713108,-73.258619,,,0,
1904:1,,Middle Country Rd/Homestead Dr,,40.87337500000001,-72.98236,,,0,
1271:1,,Deer Park Ave/S Service Rd,,40.79569200000001,-73.342222,,,0,
4217:1,,Montauk Hwy/Smith Rd,,40.80053,-72.879136,,,0,
1197:1,,E Industry Ct/Saxwood St,,40.764618,-73.297149,,,0,
3587:1,,Bay Shore Rd/Deer Park Ave,,40.75004,-73.323988,,,0,
1453:1,,Montauk Hwy/Saxon Ave,,40.728062,-73.228776,,,0,
1129:1,,Middle Country Rd/Raynor Rd,,40.891155,-72.90292599999998,,,0,
45021,,Motor Pkwy/S Bedford Ave,,40.813807,-73.166606,,,0,
2775:1,,E Jericho Tpk/Dix Hills Rd,,40.835057,-73.369224,,,0,
2089:1,,NYS 112/Hawkins Path,,40.880676,-73.010581,,,0,
44131,,Vets Hwy/Lincoln Blvd,,40.81935,-73.200277,,,0,
2358:1,,Montauk Hwy/Old Neck Rd,,40.802747,-72.808642,,,0,
46451,,NYS 109/Arnold Ave,,40.710055,-73.361103,,,0,
1366:1,,Oser Ave (390),,40.816803,-73.264814,,,0,
1913:1,,Middle Country Rd/College Rd,,40.863814,-73.047244,,,0,
46201,,Larkfield Rd/Allerton Ave,,40.86878,-73.322368,,,0,
3011:1,,Waverly Ave/Storm Dr,,40.804746,-73.043209,,,0,
2836:1,,Crooked Hill Commons,,40.812902,-73.292878,,,0,
2828:1,,Montauk Hwy/Sayville Blvd,,40.745698,-73.071956,,,0,
2357:1,,Mastic Rd/Wavecrest Dr,,40.781947,-72.847303,,,0,
1671:1,,Motor Pkwy/Express Dr S,,40.807401,-73.19359,,,0,
2890:1,,Vets Hwy/Orville Dr N,,40.783262,-73.10272,,,0,
1545:1,,Fifth Ave/Spur Drive N,,40.75111,-73.26322999999998,,,0,
1713:1,,Broadway/Plunkett St,,40.765912,-73.225347,,,0,
1180:1,,Smith St/NYS 110,,40.754221,-73.420798,,,0,
48051,,Gazzola Dr/Sills Rd,,40.779762,-72.972172,,,0,
1256:1,,E Jericho Tpk/Melville Rd,,40.830835,-73.396176,,,0,
43851,,NYS 109/Herzel Blvd,,40.71531800000001,-73.388712,,,0,
2786:1,,Montauk Hwy/N Carll Ave,,40.695797,-73.326069,,,0,
3525:1,,Bay Shore LIRR,,40.724762,-73.250467,,,0,
2490:1,,College Rd/Palm St,,40.854326,-73.046031,,,0,
47651,,Brentwood LIRR,,40.780747,-73.24454,,,0,
44531,,Myrtle Ave/NYS 25A,,40.94093,-73.06431499999998,,,0,
1742:1,,Middle Country Rd/Huber Pl,,40.861439,-73.142927,,,0,
4187:1,,Neighborhood Rd/Overlook Dr,,40.764092,-72.84985,,,0,
2210:1,,NYS 25A/Fulton St,,40.932699,-73.042043,,,0,
1625:1,,NYS 111/Townline Rd,,40.826012,-73.201058,,,0,
45851,,Wicks Rd/Mindres Ave,,40.784075,-73.262438,,,0,
3528:1,,Brook Ave/E William St,,40.73377,-73.246619,,,0,
1795:1,,Middle Country Rd/Prospect Ave,,40.857241,-73.166092,,,0,
1555:1,,Fifth Ave/Spur Drive N,,40.750478,-73.263086,,,0,
45451,,N Sea Rd/Bowden Sq,,40.890515,-72.393527,,,0,
2840:1,,Suffolk Ave/Fourth St,,40.780447,-73.249143,,,0,
44511,,Circle Rd/Gymnasium Rd,,40.918037,-73.129456,,,0,
2315:1,,Nichols Rd/Smithtown Blvd,,40.83273,-73.146718,,,0,
3093:1,,CR 39/Inlet Rd E,,40.894842,-72.46799799999998,,,0,
1317:1,,NYS 110/Allen Blvd,,40.715903,-73.427197,,,0,
1512:1,,Larkfield Rd/5th Ave,,40.872317,-73.323453,,,0,
4299:1,,NYS 110/Prime Ave,,40.877036,-73.423033,,,0,
3089:1,,Flanders Rd/Royal Ave,,40.90382000000001,-72.60608499999998,,,0,
3443:1,,Dixon Ave/Overland Ave,,40.683662,-73.41127899999998,,,0,
3298:1,,Arnold Ave/Anchor Ct,,40.701071,-73.347418,,,0,
1667:1,,Second Ave/Hilltop Dr,,40.778375,-73.232518,,,0,
3535:1,,Brook Ave/Mackay Rd,,40.731342,-73.245594,,,0,
2040:1,,Seymour Ave/Gray Ave,,40.858638,-72.970685,,,0,
3156:1,,William Floyd Pkwy/Roberts Rd,,40.78390000000001,-72.864385,,,0,
47071,,Waverly Ave/Cassa Loop,,40.81009,-73.044098,,,0,
43931,,Spur Drive Estates,,40.754357,-73.23741699999998,,,0,
2245:1,,Middle Country Rd/N Coleman Rd,,40.86114,-73.065246,,,0,
1803:1,,Hawkins Ave/Ethan Ln,,40.83510900000001,-73.10952399999998,,,0,
2667:1,,NYS 347/Plaisted Ave,,40.83415200000001,-73.18979299999998,,,0,
4224:1,,William Floyd Pkwy/Robinwood Dr,,40.764323,-72.87014,,,0,
1322:1,,Church St/Valley Forge Dr,,40.77045,-73.08705,,,0,
1189:1,,Pine Aire Dr/N Thompson Dr,,40.771411,-73.281597,,,0,
3223:1,,Straight Path/Levey Blvd,,40.745318,-73.364994,,,0,
43941,,New Hwy/Smith St,,40.754971,-73.414787,,,0,
1449:1,,Washington Ave/Cleveland St,,40.785432,-73.246342,,,0,
2116:1,,Montauk Hwy/Maple Ave,,40.765842,-73.01177199999998,,,0,
1965:1,,Old Country Rd/Kroemer Ave,,40.924186,-72.703271,,,0,
43961,,Deshon Dr/Marcus Dr,,40.760916,-73.409621,,,0,
44571,,NYS 25A/E Main St,,40.944969,-73.06777599999998,,,0,
2237:1,,N Wading River Rd/Remsen Rd,,40.959072,-72.838024,,,0,
3424:1,,Albany Ave/Harrison Ave,,40.693218,-73.411616,,,0,
1280:1,,Deer Park Ave/Acorn St,,40.76187500000001,-73.329564,,,0,
24401,,Brookhaven Town Hall,,40.844029,-73.01559899999998,,,0,
45391,,Toilsome Ln/Gingerbread Ln,,40.96352000000001,-72.1998,,,0,
2288:1,,Montauk Hwy/Chichester Ave,,40.800616,-72.796439,,,0,
2693:1,,NYS 110/Mill Ln,,40.878999,-73.422044,,,0,
3160:1,,Montauk Hwy/S Broadway,,40.6753,-73.37138299999998,,,0,
48031,,Montauk Hwy/Riverhead Hampton Bays Rd,,40.87644,-72.533039,,,0,
3752:1,,Montauk Hwy/Carleton Ave,,40.731155,-73.191244,,,0,
3944:1,,N Country Rd/Edgewood Ave,,40.937565,-73.04676499999998,,,0,
45331,,Horseblock Rd/Sawgrass Dr,,40.80859,-72.947156,,,0,
2626:1,,Station Rd/Brookhaven Ave,,40.779696,-72.944602,,,0,
3399:1,,Dixon Ave/31st St,,40.688783,-73.39583,,,0,
2529:1,,NYS 25/Bay Ave,,41.127967,-72.339814,,,0,
2589:1,,CR 39/Henry Rd,,40.897826,-72.405911,,,0,
48261,,Bayport Gardens,,40.770491,-73.050905,,,0,
3397:1,,Dixon Ave/Great Neck Rd,,40.684568,-73.401786,,,0,
2701:1,,NYS 110/Depot Rd,,40.850303,-73.411664,,,0,
1261:1,,E Jericho Tpk/Deer Park Rd,,40.83344000000001,-73.36384,,,0,
1860:1,,Vets Hwy/Johnson Ave,,40.782695,-73.098783,,,0,
44011,,Howells Rd/Fifth Ave,,40.730197,-73.2616,,,0,
1693:1,,Vets Hwy/Washington Ave,,40.787269,-73.13052999999998,,,0,
2367:1,,Montauk Hwy/Smith Rd,,40.800717,-72.879761,,,0,
2548:1,,Flanders Rd/Glider Ave,,40.909464,-72.636525,,,0,
43991,,Howells Rd/Richland Blvd,,40.73067600000001,-73.266712,,,0,
1738:1,,Vets Hwy/Harned Rd,,40.838675,-73.27794,,,0,
3629:1,,Motor Pkwy/Adams Ave,,40.806764,-73.256103,,,0,
2296:1,,Mastic Beach Rd/Washington Ave,,40.773581,-72.84546899999998,,,0,
2970:1,,NYS 112/Commercial Blvd,,40.838267,-72.99645,,,0,
46521,,Clinton Ave/Henry Pl,,40.727343,-73.260357,,,0,
2085:1,,NYS 112/Wedgewood Dr,,40.901735,-73.023397,,,0,
4092:1,,Hospital Rd/Club Dr,,40.789425,-72.978935,,,0,
3441:1,,Dixon Ave/Ferraris St,,40.68475,-73.401938,,,0,
3960:1,,Portion Rd/Ave B,,40.833601,-73.07674799999998,,,0,
3001:1,,NYS 25A/School St,,40.935606,-73.019363,,,0,
2230:1,,Carleton Ave/Adams St W,,40.740201,-73.192553,,,0,
43801,,Straight Path/Herzel Blvd,,40.71795,-73.379596,,,0,
1643:1,,Second Ave/Union Blvd,,40.726563,-73.247358,,,0,
2566:1,,Deer Park LIRR,,40.769313,-73.293276,,,0,
2118:1,,NYS 112/Dahlia St,,40.77755,-73.007906,,,0,
1918:1,,Middle Country Rd/Eastwood Blvd,,40.859164,-73.078947,,,0,
3921:1,,Strathmore Commons,,40.886105,-72.924031,,,0,
1647:1,,Suffolk Ave/Fulton St,,40.785237,-73.228098,,,0,
1177:1,,Rabro Dr/Ranick Rd,,40.812086,-73.23034199999998,,,0,
2542:1,,NYS 25/Edgar Ave,,40.944682,-72.625926,,,0,
2553:1,,Montauk Hwy/Squiretown Rd,,40.878552,-72.522394,,,0,
3396:1,,Dixon Ave/Deforest St,,40.684033,-73.406278,,,0,
1733:1,,Motor Pkwy/Express Dr N,,40.810023,-73.193777,,,0,
3973:1,,Coram Plaza,,40.86777,-72.998492,,,0,
1673:1,,Broadway/Nolin St,,40.772223,-73.226226,,,0,
3849:1,,Nichols Rd/Smithtown Blvd,,40.83332200000001,-73.146084,,,0,
2898:1,,St Johnland Rd/Leonard St,,40.88149,-73.220489,,,0,
1793:1,,E Main St/Hemlock Ln,,40.85521,-73.178982,,,0,
2595:1,,Osborn Ave/Harrison Ave,,40.924738,-72.673948,,,0,
43231,,Station Rd/Farber Dr,,40.791477,-72.948392,,,0,
1732:1,,Vets Hwy/Express Dr N,,40.81028100000001,-73.18642699999998,,,0,
2365:1,,Montauk Hwy/Harts Rd,,40.81581700000001,-72.75559199999998,,,0,
2203:1,,NYS 25A/Angela Ln,,40.94287,-72.977557,,,0,
45731,,Mount Ave/Cumberbach St,,40.739143,-73.355448,,,0,
1436:1,,Montauk Hwy/Garfield Ave,,40.7329,-73.088297,,,0,
1363:1,,Suffolk County North Complex (W),,40.828314,-73.233949,,,0,
2223:1,,NYS 25A/Amber Ln,,40.94394900000001,-72.850224,,,0,
2275:1,,Nichols Rd/Browns Rd,,40.849906,-73.13182399999998,,,0,
1020:1,,NYS 110/Spagnoli Rd,,40.763628,-73.423061,,,0,
2591:1,,Station Rd/E Woodside Ave,,40.7975,-72.95014999999998,,,0,
2340:1,,Montauk Hwy/Taylor Ave,,40.772013,-72.956064,,,0,
45881,,Old Willets Path/Creek Rd,,40.833829,-73.236144,,,0,
1304:1,,New York Ave/Albany St,,40.827753,-73.409282,,,0,
2261:1,,Waverly Ave/Long Island Ave,,40.814608,-73.044618,,,0,
4250:1,,E Main St/Howell Ave,,40.921886,-72.653142,,,0,
2554:1,,E Montauk Hwy/Old Riverhead Rd E,,40.880834,-72.513816,,,0,
1943:1,,Middle Country Rd/Elliot Ave,,40.8591,-73.108603,,,0,
1237:1,,S 2nd St/Dunton Ave,,40.767298,-73.294844,,,0,
2713:1,,NYS 110/Amityville Rd,,40.809414,-73.409576,,,0,
2617:1,,Sipp Ave/Southaven Ave,,40.803038,-72.974805,,,0,
1040:1,,Walt Whitman Shops,,40.819339,-73.409852,,,0,
46331,,Great East Neck Rd/Montauk Hwy,,40.686579,-73.344277,,,0,
44391,,Half Hollow Rd/Lone Hill Pl,,40.796537,-73.367472,,,0,
1383:1,,Straight Path/Bedell St,,40.710543,-73.383829,,,0,
2387:1,,Middle Country Rd/Picasso Way,,40.885695,-72.928533,,,0,
3101:1,,Smith Haven Mall,,40.865026,-73.132085,,,0,
44881,,Granny Rd/Oakdale Ave,,40.838802,-73.012322,,,0,
3930:1,,NYS 25A/Fish Rd,,40.947874,-72.910844,,,0,
1530:1,,Vets Hwy/Express Dr S,,40.807831,-73.184126,,,0,
1385:1,,Middle Country Rd/Picasso Way,,40.885568,-72.929185,,,0,
1282:1,,Deer Park Ave/Scott Ave,,40.722156,-73.322613,,,0,
3842:1,,Nicolls Rd/Hastings Dr,,40.901333,-73.115266,,,0,
2807:1,,Montauk Hwy/Rollstone Ave,,40.72803600000001,-73.098158,,,0,
2160:1,,NYS 347/Belle Mead Rd,,40.894301,-73.088185,,,0,
43821,,Great East Neck Rd/Little East Neck Rd,,40.702541,-73.34292,,,0,
2106:1,,NYS 112/E Woodside Ave,,40.794663,-73.00690299999998,,,0,
4310:1,,NYS 110/E 11th St,,40.843767,-73.411861,,,0,
1796:1,,Middle Country Rd/Southern Blvd,,40.85944,-73.161083,,,0,
1287:1,,Manor Ln/Howells Rd,,40.733332,-73.279909,,,0,
43681,,New Hwy/Albany Ave,,40.71184,-73.403119,,,0,
2809:1,,Montauk Hwy/Berard Blvd,,40.73658,-73.118589,,,0,
1332:1,,Straight Path/35th St,,40.6928,-73.393086,,,0,
1292:1,,Larkfield Rd/Netcong Pl,,40.860273,-73.31961699999998,,,0,
48511,,Edwards Ave S/River Rd,,40.906044,-72.743364,,,0,
45361,,Sills Rd/Horseblock Rd,,40.811605,-72.952875,,,0,
2400:1,,Kings Park Manor,,40.880092,-73.261885,,,0,
2619:1,,Southaven Ave/Christopher Ct,,40.804078,-72.962997,,,0,
1951:1,,Middle Country Rd/Patchogue-Mt Sinai Rd,,40.867605,-73.026456,,,0,
1785:1,,St Johnland Rd/Ashland Dr,,40.874437,-73.220046,,,0,
3091:1,,North Hwy/Peconic Rd,,40.894709,-72.482941,,,0,
2338:1,,Old Nichols Rd/N Connecting Rd,,40.81116500000001,-73.158488,,,0,
3129:1,,Crooked Hill Rd/Sagtikos Pkwy,,40.801017,-73.28215,,,0,
3422:1,,Albany Ave/Great Neck Rd,,40.699208,-73.40956799999998,,,0,
1941:1,,Caleb Smith State Park,,40.851812,-73.224484,,,0,
4030:1,,College Rd/Mooney Pond Rd,,40.851392,-73.045561,,,0,
3983:1,,Portion Rd/Cenacle Rd,,40.83155,-73.08735,,,0,
1566:1,,Commack Rd/Rensselaer Dr,,40.834125,-73.29416399999998,,,0,
10231,,NYS 110/Milbar Blvd,,40.750428,-73.421808,,,0,
2067:1,,NYS 25A/Beach St,,40.944973,-73.07343899999998,,,0,
2782:1,,Deer Park Ave/Straight Path,,40.783967,-73.3389,,,0,
2044:1,,Hawkins Ave/Smith Ln,,40.854874,-72.96644499999998,,,0,
4178:1,,William Floyd Pkwy/Coraci Blvd,,40.772819,-72.867461,,,0,
24271,,Technology Dr/N Belle Mead Rd,,40.896729,-73.088436,,,0,
47901,,Portion Rd/Patchogue-Holbrook Rd,,40.828693,-73.097268,,,0,
1565:1,,Commack Rd/New Hwy,,40.828846,-73.293037,,,0,
45541,,NYS 110/Church St,,40.857603,-73.413263,,,0,
2881:1,,Brentwood Rd/Colorado Ave,,40.745519,-73.24122199999998,,,0,
3874:1,,Old Nichols Rd/Johnson Ave,,40.80316100000001,-73.166023,,,0,
1901:1,,Middle Country Rd/Swezey Ln,,40.876196,-72.97292299999998,,,0,
1006:1,,Huntington Shopping Center,,40.817581,-73.410967,,,0,
46291,,Great East Neck Rd/Little East Neck Rd,,40.702431,-73.343089,,,0,
3620:1,,Deer Park Ave/Ryder Ave,,40.739154,-73.320991,,,0,
1384:1,,Straight Path/Heathcote Rd,,40.704138,-73.387354,,,0,
3870:1,,E Suffolk Ave/Carleton Ave,,40.790652,-73.201171,,,0,
1682:1,,Vets Hwy/Harned Rd,,40.838049,-73.277027,,,0,
2305:1,,William Floyd Pkwy/Surrey Cir,,40.79725,-72.8661,,,0,
2154:1,,NYS 347/Fairhaven Dr E,,40.854373,-73.145329,,,0,
1871:1,,Hawkins Ave/Ralph Ave,,40.841643,-73.11292,,,0,
4284:1,,E Main St/Ostrander Ave,,40.918714,-72.65672499999998,,,0,
43141,,Hampton Rd/NYS 27,,40.897144,-72.373028,,,0,
1908:1,,Middle Country Rd/Lobel St,,40.868257,-73.0209,,,0,
1375:1,,Straight Path/Levey Blvd,,40.74581100000001,-73.364939,,,0,
1701:1,,Johnson Ave/Carlough Rd,,40.775489,-73.094149,,,0,
3950:1,,Hawkins Ave/Church St,,40.81820600000001,-73.107785,,,0,
1110:1,,Grand Blvd/W 9th St,,40.755393,-73.335155,,,0,
1505:1,,Montauk Hwy/Northwood Ln,,40.759636,-73.03191099999998,,,0,
3301:1,,Portion Rd/Sullivan St,,40.82974,-73.09398,,,0,
47911,,Portion Rd/Hans Blvd,,40.82892,-73.09725,,,0,
4226:1,,Long Island Ave/Straight Path,,40.753821,-73.36125199999998,,,0,
3295:1,,NYS 112/Pauls Path,,40.861016,-72.998658,,,0,
4108:1,,Station Rd/Brookhaven Ave,,40.779225,-72.944603,,,0,
3654:1,,Pine Aire Dr/Wicks Rd,,40.776285,-73.260835,,,0,
4018:1,,Boyle Rd/Janet St,,40.90209,-73.054757,,,0,
1215:1,,Montauk Hwy/Evelyn Rd,,40.696989,-73.312501,,,0,
44791,,Granny Rd/NYS 112,,40.847041,-72.996725,,,0,
48111,,Brook Ave/Mildred St,,40.73717400000001,-73.249854,,,0,
1140:1,,Park Ave/Little East Neck Rd N,,40.701487,-73.3403,,,0,
2812:1,,Montauk Hwy/Idle Hour Blvd,,40.744879,-73.14206299999998,,,0,
3203:1,,Straight Path/Mathews Ave,,40.732183,-73.372277,,,0,
2622:1,,Station Rd/Tarpon Ave,,40.804322,-72.952133,,,0,
1755:1,,St Catherine of Siena Hospital,,40.867868,-73.222615,,,0,
3551:1,,Nicolls Rd/Commack Rd,,40.768602,-73.311626,,,0,
44831,,Granny Rd/Kettles Ln,,40.84829,-72.989473,,,0,
46491,,Montgomery Ave/Union Blvd,,40.727675,-73.240735,,,0,
1478:1,,Montauk Hwy/Oakwood Ave,,40.746825,-73.057899,,,0,
45201,,Fresh Pond Ave/1st St,,40.952019,-72.785438,,,0,
4272:1,,River Rd/2nd St,,40.91746100000001,-72.723347,,,0,
44141,,Vets Hwy/Wheeler Rd,,40.82299600000001,-73.208324,,,0,
3095:1,,CR 39/Magee St,,40.896311,-72.415958,,,0,
47791,,Riverhead LIRR,,40.91947600000001,-72.667694,,,0,
1373:1,,Straight Path/18th St,,40.75015,-73.3627,,,0,
2573:1,,Montauk Hwy/Windmill Ln,,40.927823,-72.328529,,,0,
47751,,Central Islip LIRR,,40.791694,-73.19607,,,0,
1952:1,,Middle Country Rd/New Ln,,40.868057,-73.020912,,,0,
3538:1,,LIU - Brentwood Campus,,40.778276,-73.237475,,,0,
46071,,Larkfield Rd/5th Ave,,40.873138,-73.323509,,,0,
3837:1,,Albany Ave/Schleigel Blvd,,40.704724,-73.404397,,,0,
44421,,Mount Ave/Essex St,,40.734213,-73.34972,,,0,
1423:1,,Montauk Hwy/Atlantic Ave (E),,40.759482,-73.031808,,,0,
47541,,Bridgehampton Sag Harbor Tpk/Paumanok Path,,40.98364500000001,-72.301505,,,0,
1491:1,,Montauk Hwy/Eaton Ln,,40.696898,-73.30928,,,0,
46711,,Patchogue-Holbrook Rd/Broadway Ave,,40.803942,-73.06833399999998,,,0,
2217:1,,Wading River Manor Rd/Benjamin St,,40.94616700000001,-72.842304,,,0,
43701,,NYS 109/7th St,,40.714781,-73.387209,,,0,
1075:1,,Montauk Hwy/Fleets Point Dr,,40.687764,-73.341213,,,0,
2214:1,,N Wading River Rd/Hulse Landing Rd,,40.96465100000001,-72.812448,,,0,
43341,,Grand Blvd/The Arches Cir,,40.761823,-73.303819,,,0,
45921,,Old Willets Path/Mobrey Ln,,40.838993,-73.236872,,,0,
1666:1,,Old Willets Path/Motor Pkwy,,40.808329,-73.23527,,,0,
3165:1,,Montauk Hwy/Riverside Ave,,40.67,-73.412778,,,0,
1130:1,,Deer Park Ave/Poplar St,,40.743455,-73.322008,,,0,
3690:1,,Oser Ave/Plant Ave,,40.816582,-73.242502,,,0,
3420:1,,Albany Ave/Schleigel Blvd,,40.70512,-73.404301,,,0,
44681,,Motor Pkwy/Blydenburgh Rd,,40.812715,-73.180283,,,0,
1038:1,,NYS 110/Louden Ave,,40.68369400000001,-73.41804399999998,,,0,
2928:1,,Middle Country Rd/Swezey Ln,,40.87639,-72.972869,,,0,
43881,,Albany Ave/Sunrise Hwy (S),,40.687326,-73.414019,,,0,
44111,,Lowell Ave/Poplar St,,40.787321,-73.191422,,,0,
2969:1,,Brookhaven Executive Center,,40.842217,-72.99684999999998,,,0,
4094:1,,La Bonne Vie Dr/Gerri Ln,,40.792274,-72.977092,,,0,
2722:1,,NYS 110/Baylis Rd,,40.772569,-73.422275,,,0,
4297:1,,NYS 110/Hill Pl,,40.880291,-73.421029,,,0,
45931,,Old Willets Path/Creek Rd,,40.833984,-73.236301,,,0,
46461,,NYS 109/Wellwood Ave,,40.715783,-73.393066,,,0,
2781:1,,Deer Park Ave/Half Hollow Rd,,40.787925,-73.340328,,,0,
1989:1,,Hawkins Ave/Portion Rd,,40.826215,-73.107558,,,0,
4109:1,,Station Rd/Atlantic Ave,,40.77462100000001,-72.943218,,,0,
1743:1,,Jericho Tpk/Hobson Ave,,40.861416,-73.149355,,,0,
2015:1,,NYS 25A/Brook Rd,,40.944914,-73.073223,,,0,
1236:1,,E Industry Ct/Saxwood St,,40.765467,-73.296964,,,0,
2006:1,,NYS 25A/Bennetts Rd,,40.93029400000001,-73.115078,,,0,
4110:1,,Station Rd/Beaver Dam Rd,,40.772922,-72.942708,,,0,
3975:1,,Albany Ave/Sunrise Hwy (N),,40.688913,-73.41310199999998,,,0,
1479:1,,Montauk Hwy/Broadway Ave,,40.747568,-73.066425,,,0,
2627:1,,Station Rd/Montauk Hwy,,40.774499,-72.943033,,,0,
2983:1,,NYS 347/Wireless Rd,,40.899231,-73.081013,,,0,
1167:1,,Belmont Ave/Kenyon Ave,,40.710192,-73.34893599999998,,,0,
2095:1,,NYS 112/Granny Rd,,40.847549,-72.997169,,,0,
2665:1,,NYS 347/Helen Ave,,40.843431,-73.17553599999998,,,0,
2005:1,,NYS 25A/Randall Rd,,40.946895,-72.900268,,,0,
3714:1,,Broadway/Nolin St,,40.77234,-73.226102,,,0,
46251,,NYS 109/1st Ave,,40.715297,-73.39142699999998,,,0,
3744:1,,Montauk Hwy/Saxon Ave,,40.727965,-73.227616,,,0,
1885:1,,Middle Country Rd/Timber Dr,,40.928129,-72.78419,,,0,
2396:1,,Swan Nursery Commons,,40.76810900000001,-72.988755,,,0,
1434:1,,Montauk Hwy/Middle Rd,,40.736335,-73.08190399999998,,,0,
3134:1,,Deer Park Ave/Burnage Ln,,40.71332300000001,-73.32142899999998,,,0,
45901,,Old Willets Path/W Jericho Tpk,,40.847084,-73.234097,,,0,
1506:1,,Community College Dr/Campus Rd,,40.794558,-73.27224699999998,,,0,
44631,,NYS 347/Lakeside Ave,,40.87819600000001,-73.115298,,,0,
45681,,Half Hollow Rd/Fox Ln,,40.795189,-73.356453,,,0,
1656:1,,Brentwood Rd/Oakwood Blvd,,40.740426,-73.239216,,,0,
3158:1,,Montauk Hwy/S Delaware Ave,,40.681225,-73.358632,,,0,
4308:1,,NYS 110/Depot Rd,,40.850786,-73.411478,,,0,
2384:1,,Horseblock Rd/Sawgrass Dr,,40.809125,-72.94762799999998,,,0,
1301:1,,E Jericho Tpk/Longfellow Dr,,40.83442200000001,-73.384947,,,0,
1419:1,,Washington Ave/Sherman St,,40.792043,-73.247142,,,0,
1245:1,,Bay Shore Rd/Deer Park Ave,,40.74946400000001,-73.323194,,,0,
44501,,SUNY Stony Brook Life Sciences Complex,,40.910941,-73.119157,,,0,
1182:1,,Washington Ave/Expy Dr N,,40.806442,-73.248932,,,0,
1535:1,,Wicks Rd/Bradley St,,40.780094,-73.260686,,,0,
2292:1,,Montauk Hwy/Jerusalem Hollow Rd,,40.807892,-72.824282,,,0,
1632:1,,Brentwood Rd/Third Ave,,40.776769,-73.246111,,,0,
1662:1,,Hawthorne Ave/Francisco Ave,,40.79606,-73.19604699999998,,,0,
1010:1,,NYS 110/Arrowood Ln,,40.802828,-73.411497,,,0,
45081,,Granny Rd/Oakdale Ave,,40.839007,-73.011504,,,0,
4296:1,,NYS 110/Park Ave,,40.883209,-73.419281,,,0,
1250:1,,Suffolk County North Complex (W),,40.828181,-73.233878,,,0,
2754:1,,Grand Blvd/W 13th St,,40.75458600000001,-73.338688,,,0,
1302:1,,E Jericho Tpk/Depot Rd,,40.832782,-73.39072299999998,,,0,
4265:1,,NYS 110/Great Neck Rd (S),,40.7103,-73.429017,,,0,
2286:1,,Montauk Hwy/Railroad Ave,,40.800097,-72.78944799999998,,,0,
2268:1,,Wavely Ave/W Roe Blvd,,40.774856,-73.028416,,,0,
48311,,Crooked Hill Rd/St Andrews Dr,,40.784647,-73.268467,,,0,
2837:1,,Crooked Hill Rd/Henry St,,40.80852500000001,-73.29115,,,0,
4073:1,,Montauk Hwy/Shoestring Ln,,40.799821,-72.893255,,,0,
1869:1,,Hawkins Ave/Ethan Ln,,40.83576200000001,-73.109603,,,0,
3709:1,,Second Ave/Brentwood Rd,,40.778403,-73.245506,,,0,
4298:1,,NYS 110/Mill Ln,,40.878783,-73.42195599999998,,,0,
44071,,US District Court,,40.758033,-73.191889,,,0,
1440:1,,Montauk Hwy/W Oak Dr,,40.730975,-73.11003599999998,,,0,
2190:1,,NYS 25A/Defense Hill Rd,,40.943824,-72.87260999999998,,,0,
2148:1,,NYS 347/Mt Pleasant Rd,,40.83683400000001,-73.184106,,,0,
2719:1,,NYS 110/S Service Rd (W),,40.778283,-73.419953,,,0,
3170:1,,Montauk Hwy/Great Neck Rd,,40.66893300000001,-73.39285,,,0,
2531:1,,NYS 25/9th St,,41.100017,-72.370997,,,0,
2246:1,,Middle Country Rd/Paula Blvd,,40.862015,-73.058659,,,0,
4099:1,,Sunshine Square,,40.807505,-72.955357,,,0,
1117:1,,Deer Park Ave/Scott Ave,,40.722135,-73.32245899999998,,,0,
2706:1,,NYS 110/W 18th St,,40.835861,-73.411758,,,0,
1759:1,,E Main St/Dogwood Rd,,40.882214,-73.224428,,,0,
2133:1,,Port Plaza,,40.920136,-73.040637,,,0,
2310:1,,Montauk Hwy/Carman Blvd,,40.787692,-72.916853,,,0,
1910:1,,Middle Country Rd/Adirondack Dr,,40.86723,-73.02986199999998,,,0,
1787:1,,St Johnland Rd/Bishops Rd,,40.86563000000001,-73.220555,,,0,
2923:1,,Middle Country Rd/Panamoka Trail,,40.909385,-72.845432,,,0,
2966:1,,NYS 112/Pine Rd,,40.89089100000001,-73.014269,,,0,
3564:1,,Farmingdale State College,,40.75594,-73.42756,,,0,
1964:1,,Old Country Rd/Tanger Mall Dr,,40.922985,-72.712599,,,0,
3685:1,,Moreland Rd/Wireless Blvd,,40.814029,-73.270225,,,0,
1441:1,,Montauk Hwy/Berard Blvd,,40.736497,-73.11873799999998,,,0,
3113:1,,Station Rd/Hollow St,,40.793758,-72.949038,,,0,
2981:1,,NYS 347/Mark Tree Rd,,40.890312,-73.095117,,,0,
2112:1,,NYS 112/Dahlia St,,40.777574,-73.0082,,,0,
3860:1,,E Suffolk Ave/Lowell Ave,,40.792609,-73.19345,,,0,
3982:1,,College Rd/Horseblock Pl,,40.840672,-73.054799,,,0,
2216:1,,N Wading River Rd/N Country Rd,,40.954273,-72.84652199999998,,,0,
3572:1,,Wyandanch LIRR,,40.754619,-73.358334,,,0,
44371,,Half Hollow Rd/Pettit Dr,,40.795975,-73.373486,,,0,
45871,,Calebs Path/Franklin Ave,,40.802913,-73.230276,,,0,
3096:1,,Montauk Hwy/Station Rd,,40.91080800000001,-72.352019,,,0,
3074:1,,NYS 25/Youngs Rd,,41.14280200000001,-72.303274,,,0,
2115:1,,NYS 112/Columbia St,,40.767763,-73.006908,,,0,
1722:1,,Johnson Ave/Aero Rd,,40.780071,-73.096346,,,0,
2838:1,,Crooked Hill Rd/Mcnair St,,40.783,-73.265423,,,0,
2562:1,,CR 39/Tuckahoe Ln,,40.89355,-72.423525,,,0,
2087:1,,NYS 112/Pine Rd,,40.89102900000001,-73.014096,,,0,
4177:1,,Mastic Rd/Southaven Ave,,40.79796000000001,-72.840721,,,0,
46761,,Middle Country Rd/Parnsip Pond Rd,,40.861701,-73.122649,,,0,
2841:1,,Fifth Ave/Candlewood Rd,,40.767769,-73.261103,,,0,
3967:1,,Mooney Pond Rd/Lidge Dr,,40.852419,-73.03998,,,0,
1691:1,,Vets Hwy/13th Ave,,40.788823,-73.145948,,,0,
1758:1,,St Johnland Rd/Leonard St,,40.881145,-73.220512,,,0,
45841,,Rodeo Dr/Wilshire Blvd,,40.778399,-73.288711,,,0,
3132:1,,Bridgehampton Sag Harbor Tpk/Huntington Cross Way,,40.959358,-72.298947,,,0,
1523:1,,Jericho Tpk/Town Line Rd,,40.843239,-73.293822,,,0,
4239:1,,Mastic Rd/Coventry Ave,,40.791128,-72.843903,,,0,
2207:1,,NYS 25A/Chestnut St,,40.93525600000001,-73.01973099999998,,,0,
2353:1,,William Floyd Pkwy/Flintlock Dr,,40.785817,-72.864067,,,0,
2307:1,,Montauk Hwy/Candido Ave,,40.800592,-72.874626,,,0,
1003:1,,NYS 110/Detroit Rd,,40.826656,-73.411724,,,0,
1260:1,,E Jericho Tpk/Dix Hills Rd,,40.835572,-73.371325,,,0,
45591,,Mount Ave/Birch St,,40.745428,-73.36099299999998,,,0,
4259:1,,Suffolk County Social Services,,40.93315,-72.66081699999998,,,0,
1546:1,,Fifth Ave/Spur Drive S,,40.747675,-73.263442,,,0,
3753:1,,Montauk Hwy/Matinecock Ave,,40.732407,-73.184344,,,0,
1747:1,,Middle Country Rd/Franklin Dr,,40.855758,-73.172089,,,0,
43181,,Coram Plaza,,40.867646,-72.998333,,,0,
45041,,Motor Pkwy/Blydenburgh Rd,,40.81285900000001,-73.181212,,,0,
3010:1,,Waverly Ave/Long Island Ave,,40.814489,-73.044794,,,0,
1750:1,,Spur Dr N/Commack Rd,,40.755735,-73.227801,,,0,
2767:1,,Pine Aire Dr/N Thompson Dr,,40.771582,-73.281437,,,0,
2052:1,,NYS 112/Middle Country Rd,,40.869774,-73.003928,,,0,
3537:1,,Union Blvd/Third Ave,,40.72521,-73.249658,,,0,
44871,,W Yaphank Rd/Norfleet Ln,,40.865618,-72.976872,,,0,
43431,,Calebs Path/Lexington Ave,,40.79941500000001,-73.228143,,,0,
2882:1,,E Main St/NYS 111,,40.85605300000001,-73.186995,,,0,
3112:1,,North Rd/Old Canoe Place Rd,,40.886276,-72.500179,,,0,
1698:1,,Vets Hwy/Orville Dr,,40.782903,-73.102638,,,0,
2300:1,,William Floyd Pkwy/Robinwood Dr,,40.763806,-72.870733,,,0,
47051,,Independence Plaza,,40.86522,-73.049565,,,0,
3979:1,,Mooney Pond Rd/Highview Ter,,40.86326600000001,-73.01799,,,0,
4307:1,,Huntington LIRR,,40.85306,-73.41155,,,0,
3676:1,,Washington Ave/Clarke St,,40.798963,-73.2478,,,0,
2603:1,,E Main St/Old Country Rd,,40.935738,-72.649603,,,0,
3167:1,,NYS 110/Merrick Rd,,40.6721,-73.41645,,,0,
44191,,Sunburst Blvd/Sunburst Ter,,40.778062,-73.195321,,,0,
43481,,Executive Dr/Rodeo Dr,,40.775543,-73.28925,,,0,
1337:1,,Straight Path/Bedell St,,40.710586,-73.38360299999998,,,0,
2103:1,,NYS 112/Tremont Ave,,40.806225,-73.0032,,,0,
3711:1,,Second Ave/Hilltop Dr,,40.778392,-73.233299,,,0,
1111:1,,Grand Blvd/W 4th St,,40.756526,-73.330996,,,0,
1165:1,,Belmont Ave/Sheffield Ave,,40.719131,-73.347436,,,0,
1783:1,,E Main St/Dogwood Rd,,40.882103,-73.22401,,,0,
1128:1,,Deer Park Ave/Pell Ave,,40.728597,-73.32151399999998,,,0,
1347:1,,Straight Path/18th St,,40.750111,-73.362511,,,0,
44231,,Carleton Ave/Manhattan Blvd,,40.753692,-73.19487599999998,,,0,
4049:1,,Hawkins Ave/Union Ave (W),,40.81081600000001,-73.108282,,,0,
3498:1,,Nicolls Rd/Prospect Pl,,40.767854,-73.31559,,,0,
45971,,Rodeo Dr/Wilshire Blvd,,40.778009,-73.288889,,,0,
2757:1,,Deer Park Ave/Half Hollow Rd,,40.751928,-73.325737,,,0,
46691,,Waverly Ave/Station Ave,,40.77857800000001,-73.031479,,,0,
3499:1,,Commack Rd/Nicolls Rd,,40.768059,-73.310569,,,0,
44611,,SUNY Stony Brook Life Sciences Complex,,40.911314,-73.118821,,,0,
1684:1,,Vets Hwy/Lincoln Ave,,40.83250000000001,-73.259992,,,0,
2172:1,,W Main St/Center Dr,,40.91815,-72.67035,,,0,
3331:1,,Main St/Washington St,,41.001061,-72.295242,,,0,
3313:1,,NYS 112/Towne Woods Rd,,40.874864,-73.008183,,,0,
3851:1,,Nob Hill Condominiums,,40.82619600000001,-73.147969,,,0,
1467:1,,Montauk Hwy/Everdell Ave,,40.695517,-73.297956,,,0,
3386:1,,Montauk Hwy/Canoe Place Rd,,40.883479,-72.506966,,,0,
4037:1,,Boyle Rd/Strauss Ave,,40.875561,-73.05107599999998,,,0,
1678:1,,Jericho Tpk/Daly Rd,,40.838609,-73.327322,,,0,
44811,,W Yaphank Rd/Beach Ln,,40.868681,-72.976628,,,0,
3359:1,,Montauk Hwy/Corwith Ave,,40.935693,-72.305724,,,0,
44891,,Paul's Path Mooney Pond Rd/Middle Country Rd,,40.868407,-73.0098,,,0,
3617:1,,Bay Shore Rd/Commack Rd,,40.747521,-73.31896399999998,,,0,
43611,,Candlewood Rd/Bishop Rd,,40.765968,-73.25371699999998,,,0,
2270:1,,Waverly Ave/W 1st St,,40.768104,-73.026484,,,0,
3476:1,,Montauk Hwy/Shore Rd,,40.676761,-73.367524,,,0,
2234:1,,Portion Rd/N Morris Ave,,40.835188,-73.062747,,,0,
4278:1,,Old Country Rd/Delores Ave,,40.9295,-72.682083,,,0,
1891:1,,Middle Country Rd/Half Moon Pond Rd,,40.89847300000001,-72.876268,,,0,
3855:1,,Old Nichols Rd/Halsey St,,40.802413,-73.166662,,,0,
1648:1,,Station Rd/Hampton Ave,,40.781994,-72.94534,,,0,
47561,,NYS 114/Liberty St,,40.99613200000001,-72.284274,,,0,
47341,,Griffing Ave/W 2nd St,,40.918212,-72.664558,,,0,
1797:1,,Middle Country Rd/Doyle St,,40.861255,-73.14959399999998,,,0,
1909:1,,Middle Country Rd/Patchogue-Mt Sinai Rd,,40.86784,-73.026944,,,0,
1376:1,,Straight Path/Lincoln Ave,,40.741453,-73.367283,,,0,
3360:1,,Bridgehampton Commons,,40.932476,-72.316149,,,0,
1703:1,,Church St/Lincoln Ave,,40.77042800000001,-73.083433,,,0,
2297:1,,Mastic Beach Rd/Pine Rd,,40.77137900000001,-72.842637,,,0,
1475:1,,Montauk Hwy/Gillette Ave,,40.749658,-73.044567,,,0,
3432:1,,Albany Ave/Banbury Ct,,40.685413,-73.414838,,,0,
3683:1,,Moreland Rd/Motor Pkwy,,40.806325,-73.269385,,,0,
2241:1,,College Rd/Portion Rd,,40.83629100000001,-73.053949,,,0,
3622:1,,Main Ave/N 23rd St,,40.757388,-73.369684,,,0,
2013:1,,NYS 25A/Harmony Ln,,40.945536,-73.086524,,,0,
1137:1,,N Carll Ave/Park Ave,,40.701878,-73.325819,,,0,
44591,,Stony Brook LIRR,,40.921196,-73.127313,,,0,
1902:1,,Middle Country Rd/Westfield Rd,,40.874387,-72.978934,,,0,
43241,,Riverhead County Center,,40.912785,-72.667191,,,0,
4026:1,,Waverly Ave/Buckley Rd,,40.780508,-73.03492,,,0,
4025:1,,Boyle Rd/Carston St W,,40.869097,-73.050376,,,0,
2663:1,,NYS 347/Southern Blvd,,40.85160900000001,-73.161115,,,0,
46431,,NYS 109 (89),,40.705935,-73.34739,,,0,
2835:1,,Commack Rd/Jericho Tpk,,40.84238,-73.293201,,,0,
2689:1,,E Main St/Millbrook Ln,,40.924179,-72.651138,,,0,
2998:1,,NYS 25A/Mineola Ave,,40.94328,-72.976425,,,0,
45301,,Montauk Hwy/Union Ave,,40.800256,-72.792975,,,0,
1884:1,,Middle Country Rd/Fresh Pond Ave,,40.928157,-72.773951,,,0,
2449:1,,Suffolk Ave/East Ave,,40.813354,-72.91776,,,0,
2323:1,,Montauk Hwy/Sills Rd,,40.767254,-72.985352,,,0,
4022:1,,St Josephs Village,,40.886506,-73.050893,,,0,
1786:1,,St Johnland Rd/Oakside Rd,,40.87131200000001,-73.219835,,,0,
4243:1,,SCCC - Riverhead Campus,,40.877412,-72.699342,,,0,
1919:1,,Middle Country Rd/Holbrook Rd,,40.858562,-73.08168999999998,,,0,
1170:1,,Park Ave/N Carll Ave,,40.701983,-73.32624199999998,,,0,
45721,,Mount Ave/Birch St,,40.745048,-73.360972,,,0,
2166:1,,N Columbia St/N Country Rd,,40.936375,-73.045985,,,0,
2974:1,,NYS 112/Greenport Ave,,40.80813400000001,-73.002774,,,0,
2541:1,,NYS 25/S Jamesport Ave,,40.949556,-72.581159,,,0,
47381,,Nichols Rd/Motor Pkwy,,40.816908,-73.15464799999998,,,0,
2406:1,,Commack Rd/Motor Pkwy,,40.816513,-73.29396199999998,,,0,
3864:1,,W Suffolk Ave/Oakland Ave,,40.78873200000001,-73.211235,,,0,
2711:1,,NYS 110/Schwab Rd,,40.814594,-73.410411,,,0,
2131:1,,NYS 112/Birchwood Dr,,40.908434,-73.02815699999998,,,0,
2126:1,,Hawthorne Ave/Feller Dr,,40.801549,-73.196797,,,0,
2708:1,,NYS 110/Boston Pl,,40.827267,-73.411931,,,0,
2083:1,,NYS 112/Sagamore Hill Dr,,40.908372,-73.028373,,,0,
46061,,Larkfield Rd/Allerton Ave,,40.869294,-73.322371,,,0,
2339:1,,Montauk Hwy/Station Rd,,40.774012,-72.943803,,,0,
48251,,Sunrise Hwy S Service Rd/Church St,,40.768632,-73.056095,,,0,
1503:1,,Montauk Hwy/Atlantic Ave (W),,40.728836,-73.094671,,,0,
46511,,Bay Shore Rd/Bluebell Ln,,40.74457300000001,-73.31314999999998,,,0,
3120:1,,E Main St/Fairway Ave,,40.930301,-72.649381,,,0,
45011,,Nob Hill Condominiums,,40.82296800000001,-73.147189,,,0,
46141,,Middleville Rd/Rinaldo Rd,,40.898916,-73.314539,,,0,
4086:1,,Swan Nursery Commons,,40.768074,-72.990315,,,0,
3682:1,,Community College Dr/Campus Rd,,40.794397,-73.272167,,,0,
1365:1,,Oser Ave (310),,40.81664700000001,-73.260461,,,0,
2527:1,,Orient Point Ferry Dock,,41.155227,-72.24140199999998,,,0,
3925:1,,Albany Ave/Rainbow Ln,,40.702688,-73.405735,,,0,
2602:1,,NYS 111/Townline Rd,,40.826821,-73.20115699999998,,,0,
1032:1,,NYS 110/Brefni St,,40.70489700000001,-73.427381,,,0,
47131,,NYS 347/Mark Tree Rd,,40.890654,-73.093937,,,0,
3958:1,,Portion Rd/Bayberry Rd,,40.831112,-73.08853999999998,,,0,
1597:1,,Brentwood Rd/Union Blvd,,40.729639,-73.235472,,,0,
1542:1,,Fifth Ave/Drexel Dr,,40.760114,-73.26208099999998,,,0,
3818:1,,Carleton Ave/Mckinley St,,40.74605600000001,-73.19361499999998,,,0,
3569:1,,Colonial Springs Rd/Little East Neck Rd,,40.76222,-73.392196,,,0,
2222:1,,NYS 25A/Harding St,,40.947858,-72.913098,,,0,
2285:1,,Montauk Hwy/Hawkins Ave,,40.799803,-72.786589,,,0,
3164:1,,Montauk Hwy/Deauville Blvd,,40.667747,-73.402512,,,0,
1677:1,,E Jericho Tpk/Elwood Rd,,40.837567,-73.33283299999998,,,0,
44381,,Half Hollow Rd/Pettit Dr,,40.795911,-73.373147,,,0,
1296:1,,Deer Park Ave/Macniece Pl,,40.795589,-73.341781,,,0,
1727:1,,Vets Hwy/5th Ave,,40.788385,-73.138508,,,0,
2391:1,,W Main St/Redwood Ln,,40.85543,-73.198933,,,0,
2123:1,,NYS 112/Park Ave,,40.796927,-73.006201,,,0,
1028:1,,NYS 110/Grumman Ln,,40.727533,-73.423631,,,0,
3365:1,,East Hampton LIRR,,40.96483400000001,-72.194203,,,0,
2168:1,,NYS 25A/S Columbia St,,40.932328,-73.044935,,,0,
43971,,Ruland Rd/Baylis Rd,,40.766686,-73.40816599999998,,,0,
2700:1,,Huntington LIRR,,40.85343000000001,-73.4119,,,0,
47091,,NYS 112/Washington Ave,,40.91394,-73.031419,,,0,
4140:1,,Mastic Rd/Coventry Ave,,40.790749,-72.844239,,,0,
46751,,Hawkins Ave/Sycamore Ave,,40.849691,-73.114405,,,0,
44201,,Carleton Ave/Bishop McGann Dr,,40.777492,-73.199487,,,0,
3171:1,,Montauk Hwy/Doges Promenade,,40.670333,-73.386517,,,0,
4196:1,,Neighborhood Rd/Flower Rd,,40.761443,-72.862968,,,0,
3718:1,,Broadway/Wurz St,,40.756658,-73.223935,,,0,
2965:1,,NYS 112/Colby Dr,,40.894228,-73.017217,,,0,
1568:1,,Commack Rd/Fairfield Way,,40.839822,-73.293519,,,0,
3429:1,,Middle Country Rd/Old Saddle Rd,,40.904151,-72.857066,,,0,
44561,,NYS 25A/N Country Rd,,40.936149,-73.056259,,,0,
48011,,Touro College,,40.76115200000001,-73.190124,,,0,
2159:1,,NYS 347/Emily Dr,,40.888127,-73.097919,,,0,
2717:1,,NYS 110/Sweet Hollow Rd,,40.788347,-73.415867,,,0,
2361:1,,Montauk Hwy/Beachfern Rd,,40.799986,-72.789439,,,0,
2316:1,,Montauk Hwy/Senix Ave,,40.800097,-72.801961,,,0,
2325:1,,Montauk Hwy/Case Ave,,40.76657800000001,-73.002071,,,0,
1175:1,,Wheeler Rd/Rabro Dr,,40.81330100000001,-73.21822,,,0,
1883:1,,Middle Country Rd/Edwards Ave,,40.926561,-72.74712599999998,,,0,
1030:1,,NYS 110/Allen Blvd,,40.71609200000001,-73.42659399999998,,,0,
45951,,Calebs Path/Nostrand Ave,,40.791145,-73.222959,,,0,
1711:1,,Riverhead Centre (E),,40.926213,-72.692345,,,0,
46831,,SUNY Stony Brook Baseball Field,,40.924082,-73.123428,,,0,
1015:1,,NYS 110/S Service Rd (E),,40.778222,-73.41950799999998,,,0,
2121:1,,NYS 112/Shaber Rd,,40.788281,-73.008908,,,0,
2120:1,,NYS 112/Harris St,,40.783962,-73.008544,,,0,
2834:1,,Jericho Tpk/Valmont Ave,,40.842183,-73.300528,,,0,
2730:1,,NYS 110/Ritter Ave,,40.701447,-73.42703899999998,,,0,
3670:1,,NYS 110/Sterling Pl,,40.680374,-73.417187,,,0,
46281,,NYS 109 (50-110),,40.705494,-73.347111,,,0,
45191,,Northville Tpk/Elton St,,40.924777,-72.66040099999998,,,0,
1341:1,,Straight Path/16th St,,40.724544,-73.376033,,,0,
3698:1,,Washington Ave/Expy Dr N,,40.806293,-73.248652,,,0,
46651,,Hawthorne Ave/Half Mile Rd,,40.799313,-73.196667,,,0,
1254:1,,E Jericho Tpk/New York Ave,,40.828253,-73.409076,,,0,
47921,,Conifer Village Senior Apartments North,,40.781949,-72.967927,,,0,
3082:1,,NYS 25/Love Ln,,40.991626,-72.533652,,,0,
3105:1,,Larkfield Rd/Burr Rd,,40.848981,-73.316042,,,0,
1573:1,,Joshuas Path/Ralph Ave,,40.793708,-73.219233,,,0,
2049:1,,Beach Ln/Homestead Dr,,40.868489,-72.981478,,,0,
2395:1,,NYS 25A/Westchester Dr,,40.945374,-72.957508,,,0,
4097:1,,Southaven Ave/Christopher Ct,,40.804001,-72.962486,,,0,
1889:1,,Middle Country Rd/Panamoka Trail,,40.90953300000001,-72.844787,,,0,
46031,,Brook Ave/E 3rd Ave,,40.741022,-73.259156,,,0,
1275:1,,Deer Park Ave/McCormick St,,40.778081,-73.336275,,,0,
4090:1,,Long Island Community Hospital,,40.780469,-72.978139,,,0,
1718:1,,Broadway Ave/Church St,,40.770312,-73.066249,,,0,
1012:1,,NYS 110/Arlington St,,40.791806,-73.415386,,,0,
1826:1,,Albin Ave/Arnold Ave,,40.701316,-73.349394,,,0,
2393:1,,CR 39/Shrubland Rd,,40.895609,-72.457202,,,0,
4169:1,,Montauk Hwy/Sterling Pl,,40.806397,-72.840131,,,0,
3321:1,,N Sea Rd/Willow St,,40.89498300000001,-72.397567,,,0,
2758:1,,Deer Park Ave/Edmunton Dr,,40.71832100000001,-73.32266,,,0,
4079:1,,Patchogue-Holbrook Rd/Springmeadow Dr,,40.79425,-73.05638399999998,,,0,
1190:1,,North Dr/County Center Rd,,40.82599600000001,-73.229828,,,0,
2279:1,,Montauk Hwy/Harts Rd,,40.816016,-72.755604,,,0,
2263:1,,Waverly Ave/Blue Point Rd W,,40.797967,-73.043,,,0,
4312:1,,NYS 110/E 16th St,,40.837811,-73.412075,,,0,
2181:1,,Middle Country Rd/Frances Blvd,,40.92753900000001,-72.767681,,,0,
45471,,Montauk Hwy/Old Riverhead Rd E,,40.88103000000001,-72.513834,,,0,
1437:1,,Montauk Hwy/Atlantic Ave,,40.72865,-73.09529999999998,,,0,
2016:1,,NYS 25A/E Broadway,,40.946502,-73.069443,,,0,
1788:1,,W Main St/Arthur Dr,,40.857259,-73.20719099999998,,,0,
2060:1,,Terryville Rd/Lisa Ln,,40.906309,-73.05055,,,0,
1620:1,,Smithtown LIRR,,40.8565,-73.197033,,,0,
4098:1,,Southaven Ave/Meadow Ave,,40.804259,-72.958625,,,0,
2236:1,,N Wading River Rd/N Country Rd,,40.954163,-72.847013,,,0,
4095:1,,Sipp Ave/Southaven Ave,,40.803063,-72.974636,,,0,
48581,,Union Blvd/Clinton Ave,,40.722265,-73.25642999999998,,,0,
2563:1,,CR 39/Magee St,,40.896729,-72.415387,,,0,
3691:1,,Oser Ave (45),,40.815931,-73.237665,,,0,
1744:1,,Middle Country Rd/Lake Ave,,40.860759,-73.152852,,,0,
2783:1,,Deer Park Ave/McCormick St,,40.777653,-73.336464,,,0,
3845:1,,Smith Haven Mall,,40.864899,-73.132928,,,0,
1900:1,,Middle Country Rd/Arnold Dr,,40.877519,-72.968694,,,0,
3706:1,,Suffolk Ave/Fulton St,,40.785238,-73.228763,,,0,
2113:1,,NYS 112/Vernon St,,40.776055,-73.007767,,,0,
2193:1,,NYS 25A/Madison St,,40.94797100000001,-72.91817399999998,,,0,
44921,,Granny Rd/NYS 112,,40.846903,-72.997621,,,0,
46121,,Middleville Rd/Normandy Dr,,40.899121,-73.32321,,,0,
2256:1,,Horseblock Rd/Waverly Ave,,40.836203,-73.04886399999998,,,0,
44721,,Rosevale Ave/Laurel Blvd,,40.826368,-73.13324799999998,,,0,
2010:1,,NYS 25A/Gnarled Hollow Rd,,40.943156,-73.10211099999998,,,0,
2973:1,,NYS 112/Jamaica Ave,,40.81229900000001,-73.001408,,,0,
2407:1,,Holbrook Rd/Waverly Ave,,40.767387,-73.02319799999998,,,0,
4112:1,,Station Rd/Kreamer St,,40.759386,-72.939785,,,0,
4246:1,,Riverhead County Center,,40.913173,-72.66733,,,0,
46441,,NYS 109/Platt Ave,,40.70687800000001,-73.3497,,,0,
2884:1,,E Jericho Tpk/Ware Ave,,40.833188,-73.340637,,,0,
45091,,IRS Center,,40.790965,-73.043355,,,0,
1470:1,,Pine Aire Dr/Peck Ave,,40.773925,-73.27109799999998,,,0,
1295:1,,Deer Park Ave/New Jersey St,,40.781161,-73.337628,,,0,
2962:1,,Beach Ln/Homestead Dr,,40.8686,-72.98106,,,0,
4056:1,,Patchogue-Holbrook Rd/Singingwood Dr,,40.796572,-73.059647,,,0,
3174:1,,Montauk Hwy/Linton Ave,,40.681167,-73.358383,,,0,
4247:1,,Riverhead LIRR,,40.919427,-72.668228,,,0,
2705:1,,NYS 110/W Hills Rd,,40.83845800000001,-73.41248899999998,,,0,
3442:1,,Dixon Ave/Deforest St,,40.684187,-73.406599,,,0,
2712:1,,NYS 110/Lyons St,,40.806258,-73.410578,,,0,
2995:1,,NYS 25A/East St,,40.945839,-72.889098,,,0,
1702:1,,Flanders Rd/Rd H,,40.913845,-72.652285,,,0,
1538:1,,Moreland Rd/Motor Pkwy,,40.806467,-73.269628,,,0,
45661,,Carman Rd/Melrose Rd,,40.800052,-73.379077,,,0,
2557:1,,North Hwy/Bay Hill Rd,,40.893325,-72.49103599999998,,,0,
3694:1,,Old Willets Path/Motor Pkwy,,40.808883,-73.23509,,,0,
2929:1,,Montauk Hwy/Mastic Rd,,40.806208,-72.835824,,,0,
3840:1,,Health Sciences Dr/Nicolls Rd,,40.914134,-73.115605,,,0,
3159:1,,Montauk Hwy/S Wellwood Ave,,40.678517,-73.36409999999998,,,0,
45441,,Montauk Hwy/NYS 27,,40.899518,-72.37029,,,0,
3904:1,,NYS 25A/Fairway Dr,,40.944817,-72.94438,,,0,
1561:1,,Oser Ave/Old Willets Path,,40.815956,-73.233742,,,0,
2043:1,,Granny Rd/Gordon Ave,,40.851833,-72.96741299999998,,,0,
1508:1,,Northport VA Med Cen,,40.894572,-73.30846699999998,,,0,
3094:1,,CR 39/Tuckahoe Rd,,40.891263,-72.439082,,,0,
1655:1,,Second Ave/Fairfield Cir,,40.77827400000001,-73.239692,,,0,
2762:1,,Park Ave/Little East Neck Rd N,,40.70145,-73.339947,,,0,
45061,,IRS Center,,40.791182,-73.043066,,,0,
2161:1,,NYS 347/Wireless Rd,,40.899598,-73.07982,,,0,
3421:1,,Albany Ave/Rainbow Ln,,40.702252,-73.406204,,,0,
2686:1,,W Main St (1433),,40.916427,-72.699911,,,0,
2656:1,,Neighborhood Rd/Elder Dr,,40.762603,-72.855941,,,0,
1562:1,,Suffolk Ave/Reese St,,40.78091400000001,-73.247881,,,0,
4034:1,,College Rd/Galaxie Ln,,40.857762,-73.046582,,,0,
1819:1,,Johnson Ave/Locust Ave,,40.80771,-73.12136099999998,,,0,
1147:1,,Little East Neck Rd N/Berkshire Rd,,40.705629,-73.345354,,,0,
4078:1,,Waverly Ave/Johnson St,,40.78471300000001,-73.040709,,,0,
43461,,Heartland Blvd/Mercedes Way,,40.78239700000001,-73.28465799999998,,,0,
3636:1,,Wicks Rd/Chapel Hill Dr,,40.79323200000001,-73.265831,,,0,
2926:1,,Middle Country Rd (599),,40.881231,-72.952488,,,0,
1057:1,,E John St/N Erie Ave,,40.691742,-73.366583,,,0,
1472:1,,West Ave/South St,,40.764867,-73.018743,,,0,
2546:1,,Flanders Rd/Riverleigh Ave,,40.914526,-72.661484,,,0,
3746:1,,Montauk Hwy/Ocean Ave,,40.728007,-73.218413,,,0,
26751,,NYS 347/Brooksite Dr,,40.82716700000001,-73.205868,,,0,
1014:1,,NYS 110/N Service Rd,,40.784604,-73.41689599999998,,,0,
3856:1,,Old Nichols Rd/S Bedford Ave,,40.799892,-73.169535,,,0,
2931:1,,Middle Country Rd/Pauls Path,,40.868824,-73.010749,,,0,
4205:1,,Wheatley Heights Shopping Center,,40.756933,-73.375944,,,0,
2593:1,,Flanders Rd/Evergreen Rd,,40.909721,-72.637573,,,0,
1715:1,,Broadway/Winston Dr,,40.756598,-73.224074,,,0,
1862:1,,Johnson Ave/Ocean Ave,,40.807468,-73.123478,,,0,
2620:1,,Southaven Ave/Meadow Ave,,40.804345,-72.958972,,,0,
1719:1,,Church St/Knickerbocker Ave,,40.770567,-73.086633,,,0,
3872:1,,E Suffolk Ave/Lowell Ave,,40.79264,-73.19204,,,0,
45171,,Montauk Hwy/Westminster Ave,,40.77768,-72.928316,,,0,
1422:1,,Montauk Hwy/S Prospect Ave,,40.760807,-73.029927,,,0,
2839:1,,Suffolk Ave/Park Ave,,40.778493,-73.257863,,,0,
2146:1,,NYS 347/Sequoia Dr,,40.832022,-73.194047,,,0,
3997:1,,Middle Country Rd/S Washington Ave,,40.858184,-73.089008,,,0,
2740:1,,E John St/Heling Blvd,,40.689945,-73.37012199999998,,,0,
1704:1,,Church St/Raft Ave,,40.770718,-73.070909,,,0,
48531,,Bay Shore Ave/Mechanicsville Rd,,40.723469,-73.246555,,,0,
1966:1,,Old Country Rd/Osborn Ave,,40.927789,-72.686064,,,0,
1060:1,,E John St/Centre Ave,,40.698678,-73.359887,,,0,
2150:1,,NYS 347/Terry Rd,,40.84790000000001,-73.168947,,,0,
43261,,Montauk Hwy/E Riviera Dr,,40.67141500000001,-73.381531,,,0,
3882:1,,N Country Rd/Oakland Ave,,40.938036,-73.053859,,,0,
2900:1,,Kings Park LIRR,,40.884045,-73.253838,,,0,
2592:1,,Long Island Community Hospital,,40.780268,-72.97837199999998,,,0,
3868:1,,W Suffolk Ave/N Peters Blvd,,40.78883,-73.209919,,,0,
43131,,Hampton Rd/NYS 27,,40.897124,-72.37330799999998,,,0,
4089:1,,Sills Rd/Patchogue Yaphank Rd,,40.774473,-72.978132,,,0,
1018:1,,NYS 110/Baylis Rd,,40.772664,-73.421814,,,0,
2897:1,,St Johnland Rd/Summerset Dr,,40.860516,-73.214938,,,0,
1533:1,,Crooked Hill Rd/Mcnair St,,40.78321,-73.265443,,,0,
2024:1,,Terryville Rd/Half Mile Rd,,40.905777,-73.050647,,,0,
1443:1,,Oakdale LIRR,,40.742397,-73.132229,,,0,
1782:1,,E Main St/Wink Pl,,40.882593,-73.228854,,,0,
1454:1,,Montauk Hwy/Awixa Ave,,40.72671,-73.234014,,,0,
1097:1,,Carman Rd/Wolf Hill Rd,,40.810314,-73.383396,,,0,
2036:1,,Wheeler Rd/Coventry Ln,,40.794336,-73.205239,,,0,
3099:1,,E Hampton Sag Harbor Tpk/Stephen Hands Path,,40.971285,-72.222832,,,0,
1115:1,,Deer Park Ave/Strathmore Dr,,40.728938,-73.321524,,,0,
1299:1,,E Jericho Tpk/Park Ave,,40.833531,-73.36348599999998,,,0,
2409:1,,Nesconset Shopping Center,,40.918076,-73.053751,,,0,
47881,,Sunrise Hwy S Service Rd/Peters Blvd,,40.73045900000001,-73.271283,,,0,
48421,,NYS 112/Willow Dr,,40.856483,-72.998405,,,0,
3177:1,,Aldersgate (W),,40.941547,-72.676517,,,0,
2539:1,,NYS 25/Sigsbee Rd,,40.984284,-72.538918,,,0,
4093:1,,La Bonne Vie Dr/Club Dr,,40.789983,-72.977013,,,0,
3852:1,,Nichols Rd/Motor Pkwy,,40.817712,-73.153952,,,0,
3918:1,,Middle Country Rd/Village Dr,,40.89216900000001,-72.899924,,,0,
2021:1,,Terryville Rd/Ardmer Dr,,40.92525100000001,-73.05294499999998,,,0,
1556:1,,Fifth Ave/Farrington Ave,,40.7528,-73.2628,,,0,
3883:1,,N Country Rd/2nd Ave,,40.937667,-73.047667,,,0,
3809:1,,Carleton Ave/Nassau St,,40.746283,-73.19352,,,0,
3296:1,,Flanders Rd/Red Creek Rd,,40.893273,-72.571763,,,0,
1751:1,,E Main St/Landing Ave,,40.85573,-73.191866,,,0,
3656:1,,Pine Aire Dr/Peck Ave,,40.773961,-73.270439,,,0,
45351,,Horseblock Rd/Old Dock Rd,,40.80728,-72.944695,,,0,
2254:1,,Horseblock Rd/Woodmont Pl,,40.831356,-73.029428,,,0,
2537:1,,NYS 25/New Suffolk Rd,,41.010735,-72.485296,,,0,
1892:1,,Middle Country Rd/Ruth Ln,,40.89493800000001,-72.89098,,,0,
3169:1,,Montauk Hwy/Buchanan Ave,,40.667625,-73.401887,,,0,
2594:1,,Flanders Rd/Peconic Ave,,40.914615,-72.660812,,,0,
3107:1,,Grand Blvd/W 23rd St,,40.752583,-73.347521,,,0,
3993:1,,Middle Country Rd/Hawkton Pl,,40.860304,-73.115046,,,0,
2199:1,,NYS 25A/N Country Rd,,40.944916,-72.96297,,,0,
4130:1,,Montauk Hwy/Phyllis Dr,,40.76714900000001,-72.996675,,,0,
43191,,Riverhead Plaza,,40.934357,-72.66431799999998,,,0,
2231:1,,Hulse Landing Rd/16th St,,40.960263,-72.80951,,,0,
48121,,Meadow Rd W/Indian Head Rd,,40.882941,-73.255202,,,0,
1534:1,,Wicks Rd/Bradley St,,40.77985300000001,-73.260867,,,0,
1754:1,,St Johnland Rd/W Jericho Tpk,,40.859104,-73.21298299999998,,,0,
3162:1,,Montauk Hwy/Hawkins Blvd,,40.67035,-73.387217,,,0,
44521,,Stony Brook LIRR,,40.920983,-73.127331,,,0,
2326:1,,Motor Pkwy/Nichols Rd,,40.817484,-73.154563,,,0,
3739:1,,Dixon Ave/31st St,,40.688729,-73.39626199999998,,,0,
3016:1,,Montauk Hwy/Bellview Ave,,40.801797,-72.781519,,,0,
2741:1,,E John St/N Lewis Ave,,40.695156,-73.362264,,,0,
3310:1,,Suffolk County Social Services,,40.788193,-73.136489,,,0,
2308:1,,Montauk Hwy/Horseblock Rd,,40.794356,-72.905569,,,0,
1168:1,,Little East Neck Rd N/Rutland Rd,,40.706217,-73.346164,,,0,
2710:1,,Huntington Shopping Center,,40.817383,-73.411283,,,0,
2792:1,,Straight Path/46th St,,40.69867700000001,-73.39031,,,0,
2458:1,,Horseblock Rd/Lidge Dr,,40.833632,-73.039321,,,0,
3716:1,,Broadway/Plunkett St,,40.765653,-73.225183,,,0,
1073:1,,Railroad Ave/Little East Neck Rd,,40.697071,-73.336394,,,0,
48021,,Touro College,,40.761061,-73.189939,,,0,
2376:1,,Station Rd/E Woodside Ave,,40.797626,-72.95003,,,0,
1571:1,,Joshuas Path/Lexington Ave,,40.80165,-73.217839,,,0,
2178:1,,Old Country Rd/Commerce Dr,,40.924749,-72.700051,,,0,
4111:1,,Station Rd/Head Of The Neck Rd,,40.765383,-72.94044,,,0,
1011:1,,Melville Mall,,40.799414,-73.412322,,,0,
44261,,Belmont Ave/Montgomery Ave,,40.720819,-73.34700599999998,,,0,
3848:1,,Nichols Rd/Woodview Dr,,40.84154500000001,-73.139617,,,0,
46881,,Union Ave/Knickerbocker Ave,,40.81137600000001,-73.090885,,,0,
3906:1,,NYS 25A/Long Trail,,40.945343,-72.939704,,,0,
2957:1,,NYS 25A/Gnarled Hollow Rd,,40.943308,-73.10214999999998,,,0,
46621,,Hawthorne Ave/Half Mile Rd,,40.799425,-73.196522,,,0,
1340:1,,Straight Path/12th St,,40.72168700000001,-73.377571,,,0,
1249:1,,Old Willets Path/Vets Hwy,,40.825869,-73.234714,,,0,
43471,,Rodeo Dr/Mercedes Way,,40.782058,-73.288903,,,0,
4264:1,,Old Country Rd/Woodcrest Ave,,40.929553,-72.68248199999998,,,0,
3969:1,,Mooney Pond Rd/Adirondack Dr,,40.857891,-73.02870799999998,,,0,
44291,,Belmont Ave/Throop St,,40.727392,-73.345861,,,0,
2370:1,,Middle Country Rd/Rustic Rd,,40.85814100000001,-73.093926,,,0,
2394:1,,Meadow Rd W/Indian Head Rd,,40.88306,-73.255077,,,0,
26691,,NYS 347/NYS 111,,40.83022600000001,-73.199089,,,0,
1905:1,,Middle Country Rd/Country Club Dr,,40.87273,-72.98931,,,0,
2576:1,,Bridgehampton Sag Harbor Tpk/Sunrise Ave,,40.94805,-72.299467,,,0,
1674:1,,E Jericho Tpk/Old Country Rd,,40.83192,-73.35856,,,0,
2707:1,,NYS 110/W 21st St,,40.83338100000001,-73.411222,,,0,
1525:1,,Commack Rd/Wicks Rd,,40.833608,-73.294375,,,0,
3155:1,,Peconic Bay Medical Center,,40.934171,-72.674895,,,0,
1489:1,,Montauk Hwy/Tahlulah Ln,,40.69634400000001,-73.30400899999998,,,0,
1762:1,,E Main St/Lawrence Rd,,40.884237,-73.241191,,,0,
4233:1,,Nicolls Rd/Totten Ave,,40.764202,-73.337571,,,0,
3830:1,,Montauk Hwy/Rose Ct,,40.73449500000001,-73.175734,,,0,
2403:1,,Commack Rd/Motor Pkwy,,40.815806,-73.29367,,,0,
48431,,NYS 112/Oak St,,40.770168,-73.007191,,,0,
3576:1,,Grand Blvd/W 18th St,,40.753712,-73.343378,,,0,
1013:1,,NYS 110/Pinelawn Rd,,40.788917,-73.415283,,,0,
46611,,Lowell Ave/Hemlock St,,40.790528,-73.191991,,,0,
4242:1,,Mastic Rd/Patchogue Ave,,40.801292,-72.840422,,,0,
46551,,Colonial Springs Rd/Briarwood Rd,,40.75955,-73.385129,,,0,
3971:1,,Mooney Pond Rd/Highview Ter,,40.86319000000001,-73.017438,,,0,
3318:1,,LIU - Brentwood Campus,,40.778401,-73.237257,,,0,
47491,,NYS 25/Ackerly Pond Rd,,41.05550800000001,-72.43517799999998,,,0,
2097:1,,NYS 112/Commercial Blvd,,40.839883,-72.996317,,,0,
46231,,Brook Ave/E 3rd Ave,,40.74062700000001,-73.258703,,,0,
2813:1,,Bayard Cutting Arboretum,,40.738678,-73.163706,,,0,
43381,,Calebs Path/Vanderbilt Ave,,40.794952,-73.225058,,,0,
1272:1,,Deer Park Ave/Half Hollow Rd,,40.789114,-73.340439,,,0,
2107:1,,NYS 112/Morris Ave,,40.792279,-73.008011,,,0,
2017:1,,NYS 25A/Arden Pl,,40.945809,-73.068567,,,0,
1024:1,,NYS 110/Gazza Blvd,,40.747419,-73.422008,,,0,
45791,,Middle Country Rd/Moriches Rd,,40.862195,-73.130027,,,0,
46871,,Union Ave/Mill Rd,,40.811128,-73.100964,,,0,
2102:1,,NYS 112/Greenport Ave,,40.808793,-73.002362,,,0,
2459:1,,Boyle Rd/Rush St,,40.893449,-73.05354199999998,,,0,
3217:1,,Carleton Ave/Hoppen Dr,,40.76573900000001,-73.196941,,,0,
3986:1,,Hawkins Ave/School St,,40.831337,-73.10858399999998,,,0,
3145:1,,N Wading River Rd/Terry Rd,,40.961774,-72.828767,,,0,
47351,,CR 39/Shrubland Rd,,40.895387,-72.45734899999998,,,0,
3142:1,,E Main St/Elton St,,40.928911,-72.649559,,,0,
2588:1,,Station Rd/Hampton Ave,,40.781866,-72.94544399999998,,,0,
1635:1,,Brentwood Rd/Candlewood Rd,,40.764164,-73.246146,,,0,
47011,,Granny Rd/Mt McKinley Ave,,40.836825,-73.016808,,,0,
2996:1,,NYS 25A/Miller Ave,,40.94640900000001,-72.89446599999998,,,0,
1000:1,,NYS 110/E 18th St,,40.835536,-73.411497,,,0,
44691,,Motor Pkwy/Computer Associates Plaza,,40.81308400000001,-73.172128,,,0,
3075:1,,NYS 25/Old Orchard Ln,,41.126562,-72.341586,,,0,
2954:1,,NYS 25A/Bennetts Rd,,40.929807,-73.115857,,,0,
2691:1,,NYS 110/Ketewomoke Dr,,40.885289,-73.418328,,,0,
47331,,Main Rd/Webb St,,41.10952000000001,-72.36356,,,0,
1343:1,,Straight Path/Mathews Ave,,40.732169,-73.37200799999998,,,0,
1113:1,,Deer Park Ave/Weston Ave,,40.755611,-73.32665299999998,,,0,
44491,,Circle Rd/Fine Arts Dr,,40.914156,-73.119212,,,0,
1311:1,,NYS 110/Daniel St,,40.746625,-73.422678,,,0,
2697:1,,NYS 110/High St,,40.86799400000001,-73.42565,,,0,
48361,,Motor Pkwy/Bridge Rd,,40.805616,-73.194643,,,0,
2201:1,,NYS 25A/Radio Ave,,40.944072,-72.96785199999998,,,0,
1700:1,,Johnson Ave/Corporate Dr,,40.779559,-73.096304,,,0,
1873:1,,Hawkins Ave/Williams Blvd,,40.857372,-73.113783,,,0,
2162:1,,NYS 347/Arrowhead Ln,,40.904592,-73.07190799999998,,,0,
43791,,Great East Neck Rd/Crocus Ct,,40.691549,-73.345122,,,0,
3995:1,,Middle Country Rd/Smith Ln,,40.85819200000001,-73.099065,,,0,
1896:1,,Middle Country Rd/St Margaret Blvd,,40.882062,-72.947254,,,0,
44951,,Portion Rd/Sullivan St,,40.829767,-73.09452899999998,,,0,
17521,,W Main St/Karl Ave,,40.854945,-73.19612499999998,,,0,
3719:1,,Spur Dr N/Commack Rd,,40.755598,-73.22772,,,0,
2560:1,,CR 39/Inlet Rd E,,40.894914,-72.469053,,,0,
3514:1,,Gardiner Manor Mall,,40.727467,-73.277973,,,0,
46161,,Fort Salonga Rd/Harrison Dr,,40.897199,-73.333911,,,0,
1784:1,,St Johnland Rd/Rumford Rd,,40.87777,-73.219713,,,0,
2451:1,,William Floyd Pkwy/Linden Ave,,40.790208,-72.864001,,,0,
47941,,Calverton Hills,,40.902895,-72.73878,,,0,
45231,,NYS 25A/Fish Rd,,40.947714,-72.910471,,,0,
1336:1,,Straight Path/Colonial Rd,,40.70728900000001,-73.385347,,,0,
1999:1,,Circle Rd/Roosevelt Dr,,40.91189700000001,-73.127678,,,0,
2306:1,,Montauk Hwy/Camp Upton Rd,,40.80085,-72.869201,,,0,
2727:1,,NYS 110/Sherwood Ave,,40.744142,-73.423008,,,0,
3945:1,,N Country Rd/Belle Terre Rd,,40.938219,-73.05369399999998,,,0,
47021,,Nichols Rd/Hauppauge Rd,,40.820982,-73.152157,,,0,
4023:1,,Boyle Rd/Hawthorne St,,40.88169,-73.052094,,,0,
47481,,NYS 25/Old Main Rd,,41.077399,-72.40249,,,0,
45111,,Horseblock Rd/Lidge Dr,,40.833283,-73.039072,,,0,
43841,,NYS 109/5th Ave,,40.714726,-73.382322,,,0,
3879:1,,NYS 347/Lakeside Ave,,40.878031,-73.11490499999998,,,0,
2918:1,,Middle Country Rd/Edwards Ave,,40.926712,-72.747182,,,0,
1876:1,,Montauk Hwy/Islip Ave,,40.730225,-73.207749,,,0,
45151,,Wheeler Rd/Townline Rd,,40.824631,-73.204786,,,0,
2278:1,,Nichols Rd/Woodview Dr,,40.841693,-73.139719,,,0,
1132:1,,Grand Blvd/W 8th St,,40.755719,-73.334532,,,0,
45821,,Straight Path/17th St,,40.724446,-73.376335,,,0,
1277:1,,Deer Park Ave/Liberty St,,40.768833,-73.332106,,,0,
47001,,Granny Rd/Kettles Ln,,40.848127,-72.989513,,,0,
4183:1,,Whittier Dr/Queen Rd,,40.769517,-72.838917,,,0,
1100:1,,Five Towns College,,40.794167,-73.36963299999998,,,0,
3692:1,,Oser Ave/Old Willets Path,,40.815834,-73.233734,,,0,
2283:1,,Montauk Hwy/Mill Pond Ln,,40.800121,-72.771401,,,0,
47151,,NYS 25A/Village Dr N,,40.940185,-73.003778,,,0,
1806:1,,Portion Rd/Cleary Rd,,40.827317,-73.10264599999998,,,0,
2291:1,,Montauk Hwy/James Hawkins Rd,,40.804975,-72.81586299999998,,,0,
46581,,Irish Ln/Union Blvd,,40.73482700000001,-73.198029,,,0,
45181,,Northville Tpk/Elton St,,40.92479,-72.66056399999998,,,0,
43531,,Wheeler Rd/Motor Pkwy,,40.802668,-73.212523,,,0,
3039:1,,Montauk Hwy/Station Rd,,40.774083,-72.944287,,,0,
2252:1,,Horseblock Rd/Waverly Ave,,40.835854,-73.048473,,,0,
48211,,W Main St/Elm Ave,,40.854884,-73.195081,,,0,
3779:1,,Wheeler Rd/E Suffolk Ave,,40.790969,-73.20215899999998,,,0,
4306:1,,NYS 110/Olive St,,40.85773,-73.41302,,,0,
2124:1,,NYS 112/Waverly Ave,,40.82235,-72.997263,,,0,
44101,,Lowell Ave/Juniper St,,40.780366,-73.190143,,,0,
2621:1,,Sunshine Square,,40.807154,-72.95607699999998,,,0,
2747:1,,Carman Rd/Wolf Hill Rd,,40.81005600000001,-73.38334,,,0,
2729:1,,NYS 110/Brefni St,,40.704308,-73.427581,,,0,
45601,,Nicolls Rd/Western Ave,,40.762886,-73.344094,,,0,
45381,,Middle Rd/Nadel Dr,,40.937152,-72.67531099999998,,,0,
48161,,Babylon LIRR,,40.70107500000001,-73.32437,,,0,
2816:1,,Montauk Hwy/Montgomery Ave,,40.725044,-73.240425,,,0,
4295:1,,NYS 110/Ketewomoke Dr,,40.885036,-73.41827499999998,,,0,
2958:1,,NYS 25A/Bay View Ave,,40.943712,-73.098386,,,0,
1541:1,,Fifth Ave/Spence St,,40.76325,-73.261679,,,0,
2590:1,,CR 39/Tuckahoe Ln,,40.892959,-72.425224,,,0,
3161:1,,Montauk Hwy/S 9th St,,40.672817,-73.377017,,,0,
2356:1,,Mastic Beach Rd/Quay Ave,,40.779047,-72.847847,,,0,
4300:1,,NYS 110/Stewart Ave,,40.87382,-73.42502,,,0,
1570:1,,Jericho Tpk/Calvert Ave,,40.841022,-73.310253,,,0,
3123:1,,Herkimer St/Carlton Ave,,40.805067,-72.840683,,,0,
4218:1,,Montauk Hwy/Ashley Pl,,40.800423,-72.87500799999998,,,0,
44081,,Carleton Ave/Sunburst Blvd,,40.777588,-73.19914199999998,,,0,
1714:1,,Broadway/Stahley St,,40.76074400000001,-73.224652,,,0,
48001,,Great East Neck Rd/Arnold Ave,,40.70071200000001,-73.342488,,,0,
3862:1,,W Suffolk Ave/Wheeler Rd,,40.79058100000001,-73.202882,,,0,
48061,,Sills Rd/Gazzola Dr,,40.779877,-72.973046,,,0,
1528:1,,Crooked Hill Rd/Henry St,,40.80812800000001,-73.290667,,,0,
2374:1,,Station Rd/Sunrise Hwy N Service Rd,,40.791479,-72.948155,,,0,
44961,,Ocean Ave/Johnson Ave,,40.807721,-73.124202,,,0,
3713:1,,Broadway/Loeffler St,,40.774649,-73.226569,,,0,
3428:1,,Dixon Ave/Albany Ave,,40.68443400000001,-73.416117,,,0,
2815:1,,Montauk Hwy/Penataquit Ave,,40.725756,-73.237886,,,0,
1600:1,,Brentwood Rd/Redington St,,40.731397,-73.236258,,,0,
48461,,Northville Tpk/East Ave,,40.920975,-72.66202,,,0,
2269:1,,Waverly Ave/W 6th St,,40.771139,-73.027563,,,0,
1529:1,,Oser Ave (395),,40.816645,-73.264737,,,0,
1665:1,,Motor Pkwy/LIE S Service Rd,,40.80576700000001,-73.232917,,,0,
3810:1,,Carleton Ave/Andrew Ave,,40.750627,-73.194303,,,0,
47891,,Health Sceinces Dr/Patriots Rd,,40.905992,-73.110653,,,0,
47451,,NYS 25/Brecknock Rd,,41.116009,-72.362475,,,0,
3527:1,,Brook Ave/Palm Rd,,40.731617,-73.24558,,,0,
1080:1,,Albin Ave/Ave A,,40.700791,-73.353311,,,0,
3040:1,,East Wind Apartment Complex,,40.76736300000001,-72.982932,,,0,
3086:1,,NYS 25/Edgar Ave,,40.944728,-72.626751,,,0,
2244:1,,Mooney Pond Rd/Adirondack Dr,,40.858532,-73.02828599999998,,,0,
3635:1,,Wicks Rd/Community College Dr,,40.795721,-73.266897,,,0,
1764:1,,Kings Park LIRR,,40.88410600000001,-73.253594,,,0,
2041:1,,Gray Ave/Cedar Ln,,40.856091,-72.96997399999998,,,0,
43561,,Candlewood Rd/E 3rd Ave,,40.766036,-73.254374,,,0,
1243:1,,Deer Park Ave/Mohawk Dr,,40.736998,-73.320227,,,0,
2242:1,,Mooney Pond Rd/S Evergreen Dr,,40.85275,-73.039412,,,0,
48271,,Sunrise Hwy S Service Rd/Halley Dr,,40.774358,-73.039776,,,0,
3031:1,,Montauk Hwy/Sills Rd,,40.76742200000001,-72.985359,,,0,
1358:1,,Suffolk County North Complex (E),,40.82798600000001,-73.231578,,,0,
2253:1,,Horseblock Rd/Blue Point Rd,,40.831689,-73.033523,,,0,
2558:1,,North Hwy/Peconic Rd,,40.894551,-72.483487,,,0,
1022:1,,NYS 110/Smith St (N),,40.754611,-73.42191099999998,,,0,
4100:1,,Station Rd/Sills Rd,,40.807815,-72.953329,,,0,
46261,,NYS 109/Arnold Ave,,40.709692,-73.359989,,,0,
45131,,Wheeler Rd/Vets Hwy,,40.823845,-73.20600399999998,,,0,
2205:1,,NYS 25A/Pipe Stave Hollow Rd,,40.940523,-72.998716,,,0,
44051,,Republic Rd/Marcus Dr,,40.758632,-73.415277,,,0,
1474:1,,Montauk Hwy/Buffin Ln,,40.752502,-73.03988,,,0,
1203:1,,NYS 25A/Rocky Point Landing Rd,,40.946809,-72.928355,,,0,
3485:1,,Straight Path/Nicolls Rd,,40.75948300000001,-73.35774499999998,,,0,
3282:1,,Station Plaza,,40.75564700000001,-73.35952399999998,,,0,
2289:1,,Montauk Hwy/Senix Ave,,40.800267,-72.801883,,,0,
46661,,Lowell Ave/Hemlock St,,40.79073300000001,-73.192327,,,0,
2830:1,,Larkfield Rd/Pulaski Rd,,40.876628,-73.324736,,,0,
2545:1,,Harrison Ave/School St,,40.925771,-72.675507,,,0,
2260:1,,Waverly Ave/Haspel Ln,,40.819124,-73.045382,,,0,
45241,,N Wading River Rd/Little Flower Dr,,40.960233,-72.83208,,,0,
3104:1,,Montauk Hwy/Clinton Ave,,40.718897,-73.253139,,,0,
2526:1,,Patchogue-Holbrook Rd/Springmeadow Dr (N),,40.796303,-73.059743,,,0,
1634:1,,Brentwood Rd/Fourth St,,40.767162,-73.24627599999998,,,0,
44551,,Mather Hospital,,40.93902700000001,-73.055704,,,0,
4115:1,,Conifer Village Senior Apartments,,40.78070000000001,-72.969067,,,0,
3987:1,,Hawkins Ave/Thorne St,,40.814653,-73.10818399999998,,,0,
46541,,Bay Shore Rd/Skidmore Rd,,40.745011,-73.313654,,,0,
4059:1,,Waverly Ave/Johnson St,,40.784451,-73.040809,,,0,
1191:1,,Executive Dr/Rodeo Dr,,40.775419,-73.289122,,,0,
3098:1,,Bridgehampton Sag Harbor Tpk/Sunrise Ave,,40.948033,-72.2993,,,0,
3279:1,,NYS 112/Lake Dr,,40.836783,-72.995983,,,0,
2399:1,,NYS 25A/Fairway Dr,,40.945018,-72.945543,,,0,
1402:1,,Terryville Rd/University Dr,,40.918041,-73.052107,,,0,
2215:1,,N Wading River Rd/Little Flower Dr,,40.960344,-72.83206199999998,,,0,
3745:1,,Montauk Hwy/Athasca Rd,,40.727852,-73.222869,,,0,
45221,,Hulse Landing Rd/22nd St,,40.955937,-72.806843,,,0,
46221,,Commack Rd/Daly Rd,,40.821388,-73.293577,,,0,
4027:1,,College Rd/Middle Country Rd,,40.863429,-73.047709,,,0,
48191,,Babylon LIRR,,40.700469,-73.32352899999998,,,0,
1059:1,,E John St/N Lewis Ave,,40.695082,-73.36216,,,0,
1259:1,,E Jericho Tpk/Cooper Ave,,40.835014,-73.37715799999998,,,0,
47081,,NYS 112/Montauk Hwy,,40.766448,-73.006797,,,0,
47421,,Johnson Ave/Vets Hwy,,40.78189600000001,-73.097637,,,0,
43521,,Nicolls Rd/Carlls Path,,40.767201,-73.320902,,,0,
43401,,Rabro Dr/Power Dr,,40.810764,-73.232783,,,0,
1681:1,,Vets Hwy/Sunkean Meadow Pkwy,,40.840514,-73.28459599999998,,,0,
45411,,Flanders Rd/Bayview Ln,,40.909449,-72.62607199999998,,,0,
2051:1,,Wheeler Rd/Mcgowan Ln,,40.797592,-73.208102,,,0,
1536:1,,Suffolk Ave/Park Ave,,40.778589,-73.25805,,,0,
1244:1,,Deer Park Ave/Mohawk Dr,,40.736764,-73.320564,,,0,
2086:1,,NYS 112/Colby Dr,,40.89460600000001,-73.017324,,,0,
2452:1,,Boyle Ln/Janet St,,40.901945,-73.054522,,,0,
47771,,Smith Haven Mall,,40.864967,-73.132503,,,0,
2978:1,,NYS 112/E Roe Blvd,,40.776162,-73.00805699999998,,,0,
1462:1,,Montauk Hwy/Captains Way,,40.705087,-73.267255,,,0,
3748:1,,Islip Town Hall,,40.729516,-73.211654,,,0,
4275:1,,Nicolls Rd/Carlls Path,,40.767106,-73.32073,,,0,
3144:1,,N Wading River Rd/Great Rock Dr,,40.962871,-72.827124,,,0,
43921,,Motor Pkwy/Adams Ave,,40.806563,-73.255803,,,0,
4096:1,,Southaven Ave/Silver Pine Dr,,40.803483,-72.970729,,,0,
2355:1,,Mastic Beach Rd/Pine Rd,,40.771558,-72.843008,,,0,
45251,,Old Country Rd/Ostrander Ave,,40.93431000000001,-72.669479,,,0,
1676:1,,E Jericho Tpk/Ware Ave,,40.83337800000001,-73.33963199999998,,,0,
1108:1,,Grand Blvd/W 18th St,,40.75348300000001,-73.343598,,,0,
2152:1,,NYS 347/Lake Ave,,40.852197,-73.153277,,,0,
3281:1,,Straight Path/Winter Ave,,40.755724,-73.359724,,,0,
1745:1,,Middle Country Rd/Arlington Ave,,40.859696,-73.160797,,,0,
2343:1,,E Suffolk Ave/Vets Hwy,,40.798653,-73.17381899999998,,,0,
2806:1,,Montauk Hwy/Greene Ave,,40.734467,-73.08542199999998,,,0,
2022:1,,Terryville Rd/Norwood Ave,,40.921592,-73.052511,,,0,
3645:1,,Washington Ave/Clarke St,,40.799057,-73.247963,,,0,
44581,,NYS 25A/Ridgeway Ave,,40.93520800000001,-73.110988,,,0,
2410:1,,NYS 347/Woodhull Ave,,40.915105,-73.057399,,,0,
2822:1,,Good Samaritan Hospital,,40.695853,-73.29541399999998,,,0,
2259:1,,Waverly Ave/Expy Drive N,,40.822385,-73.045936,,,0,
3562:1,,N 18th St/Merritt Ave,,40.754166,-73.363934,,,0,
3781:1,,Wheeler Rd/Adams Rd,,40.798,-73.208271,,,0,
1312:1,,NYS 110/Conklin St (N),,40.74023,-73.42324,,,0,
1720:1,,Johnson Ave/Aimee Ln,,40.771173,-73.091637,,,0,
45421,,Flanders Rd/Ludlam Ave,,40.912349,-72.64734799999998,,,0,
1315:1,,NYS 110/Michael Ave,,40.727708,-73.424142,,,0,
1723:1,,Vets Hwy/Schaefer Dr,,40.784793,-73.10964199999998,,,0,
44171,,Lowell Ave/Clayton St,,40.786783,-73.19155,,,0,
2698:1,,NYS 110/Grandview St,,40.863783,-73.422917,,,0,
1161:1,,Belmont Ave/Clark St,,40.730116,-73.345562,,,0,
1763:1,,E Main St (125),,40.88449,-73.244563,,,0,
47371,,The Big Duck,,40.907101,-72.62273999999998,,,0,
4045:1,,Middle Country Rd/Hammond Ln,,40.858401,-73.099563,,,0,
2919:1,,Middle Country Rd/Timber Dr,,40.928304,-72.784193,,,0,
46951,,Richmond Blvd/Mohican Ave,,40.82348300000001,-73.143,,,0,
47601,,Amityville LIRR,,40.68017300000001,-73.420584,,,0,
1670:1,,E Main St/N Country Rd,,40.856243,-73.187884,,,0,
45991,,Jericho Tpk (3124),,40.839539,-73.319462,,,0,
2280:1,,Montauk Hwy/Woodlawn Ave,,40.80999700000001,-72.757625,,,0,
2715:1,,Melville Mall,,40.799306,-73.412717,,,0,
2125:1,,NYS 112/4th St,,40.863989,-72.998951,,,0,
47951,,Riverhead Correctional Facility,,40.91593000000001,-72.67202399999998,,,0,
2629:1,,Station Rd/Head Of The Neck Rd,,40.765431,-72.94029999999998,,,0,
3423:1,,Albany Ave/Delaware Ave,,40.696778,-73.410635,,,0,
47721,,Central Islip LIRR,,40.791568,-73.196699,,,0,
3947:1,,Ronkonkoma LIRR,,40.80808300000001,-73.107133,,,0,
4036:1,,Boyle Rd/Carston St,,40.869227,-73.050166,,,0,
1348:1,,Straight Path/Commonwealth Dr,,40.75288900000001,-73.361028,,,0,
2008:1,,Three Village Shopping Center,,40.937517,-73.11,,,0,
47411,,Montauk Hwy/Hanson Pl,,40.73941,-73.079269,,,0,
1331:1,,SCCC - Brentwood Campus,,40.796875,-73.274028,,,0,
1173:1,,Grand Blvd/Carlls Path,,40.75885,-73.320139,,,0,
3312:1,,Portion Rd/Warren Ave,,40.835412,-73.06798,,,0,
3303:1,,NYS 25A/Mt Sinai Coram Rd,,40.937187,-73.012804,,,0,
3680:1,,Wicks Rd/Hancock St,,40.789161,-73.264298,,,0,
1007:1,,NYS 110/Schwab Rd,,40.815444,-73.410242,,,0,
3088:1,,Flanders Rd/Pleasure Dr,,40.903138,-72.6172,,,0,
1143:1,,Great East Neck Rd/Railroad Ave,,40.69439400000001,-73.344389,,,0,
2687:1,,W Main St/Forge Rd,,40.915783,-72.706236,,,0,
3710:1,,Second Ave/Fairfield Cir,,40.778392,-73.23983,,,0,
43631,,Brook Ave/Brook Spur Dr,,40.739163,-73.255846,,,0,
1273:1,,Deer Park Ave/Straight Path,,40.783878,-73.338514,,,0,
2109:1,,NYS 112/Harris St,,40.784545,-73.008878,,,0,
3283:1,,Gardiners County Park,,40.700809,-73.276703,,,0,
45401,,Flanders Rd/Red Creek Rd,,40.893433,-72.571712,,,0,
44861,,W Yaphank Rd/Teller Ave,,40.860775,-72.977294,,,0,
3081:1,,NYS 25/Sterling Ln,,41.018703,-72.48057,,,0,
46731,,Union Ave/Mill Rd,,40.811274,-73.101614,,,0,
45831,,Straight Path/Union Rd,,40.70721300000001,-73.385627,,,0,
1601:1,,Union Blvd/Montgomery Ave,,40.728006,-73.240275,,,0,
1116:1,,Deer Park Ave/Phelps Ln,,40.72453800000001,-73.322863,,,0,
2363:1,,Montauk Hwy/Moriches Ave,,40.802006,-72.767017,,,0,
4051:1,,Union Ave/Pine St,,40.811744,-73.08713899999998,,,0,
1734:1,,Motor Pkwy/Express Dr S,,40.80810000000001,-73.193787,,,0,
46911,,Waverly Ave/Ellsworth St,,40.779227,-73.032981,,,0,
43511,,Commack Rd/Long Island Ave,,40.766794,-73.310658,,,0,
1381:1,,Straight Path/Babylon Farmingdale Rd,,40.715014,-73.381375,,,0,
1031:1,,NYS 110/Great Neck Rd,,40.711542,-73.428464,,,0,
2066:1,,NYS 25A/Spring St,,40.94387900000001,-73.067192,,,0,
46401,,Montauk Hwy/Maple Ave,,40.684246,-73.35224599999998,,,0,
3669:1,,W Oak St/NYS 110,,40.679303,-73.418268,,,0,
3675:1,,Washington Ave/Merion Rd,,40.795517,-73.247384,,,0,
4209:1,,William Floyd Pkwy/Havenwood Dr,,40.760994,-72.871208,,,0,
1446:1,,Montauk Hwy/Connetquot Ave,,40.736447,-73.167278,,,0,
48401,,Waverly Ave/Furrows Rd,,40.812305,-73.044444,,,0,
1294:1,,Deer Park Ave/Claremont St,,40.773672,-73.334192,,,0,
43901,,Spur Drive Estates,,40.754245,-73.237421,,,0,
2586:1,,Hampton Rd/David Whites Ln,,40.892803,-72.379166,,,0,
46021,,Jericho Tpk (3083),,40.839605,-73.320538,,,0,
4240:1,,Mastic Rd/Shinnecock Ave,,40.79738900000001,-72.840686,,,0,
1792:1,,E Main St/Plaza Dr,,40.856041,-73.183699,,,0,
1166:1,,Belmont Ave/Arthur Ave,,40.714439,-73.348264,,,0,
1480:1,,Montauk Hwy/Sayville Blvd,,40.745608,-73.071584,,,0,
45631,,Half Hollow Rd/Fox Ln,,40.795294,-73.356312,,,0,
2784:1,,Deer Park Ave/Liberty St,,40.769003,-73.332528,,,0,
1344:1,,Straight Path/Little East Neck Rd,,40.736142,-73.369889,,,0,
1741:1,,E Jericho Tpk/Manor Rd,,40.832167,-73.358767,,,0,
2183:1,,Fresh Pond Ave/South Path,,40.933212,-72.7754,,,0,
2145:1,,NYS 347/NYS 111,,40.830511,-73.19761099999998,,,0,
2988:1,,W Main St/Raynor Ave,,40.918085,-72.67581199999998,,,0,
2714:1,,NYS 110/Davis St,,40.80278100000001,-73.411914,,,0,
2534:1,,NYS 25/Peconic Ln,,41.041149,-72.454141,,,0,
1537:1,,Suffolk Ave/Lukens Ave,,40.77974,-73.252945,,,0,
3530:1,,South Shore Mall,,40.738671,-73.24691199999998,,,0,
1136:1,,Wolf Hill Rd/Greenwich Ave,,40.812519,-73.401705,,,0,
46771,,NYS 347/New Moriches Rd,,40.870798,-73.12772,,,0,
2206:1,,NYS 25A/Patchogue-Mt Sinai Rd,,40.938399,-73.00905,,,0,
2164:1,,NYS 347/Woodhull Ave,,40.914525,-73.057627,,,0,
3881:1,,Port Jefferson LIRR,,40.934566,-73.054534,,,0,
27441,,Railroad Ave/Little East Neck Rd,,40.697094,-73.336643,,,0,
46791,,SUNY Stony Brook Baseball Field,,40.924009,-73.123298,,,0,
1899:1,,Middle Country Rd/Church Ln,,40.878386,-72.961941,,,0,
1144:1,,Great East Neck Rd/Crocus Ct,,40.690978,-73.34523299999998,,,0,
43221,,Avery Village,,40.770417,-72.98659,,,0,
48391,,Waverly Ave/Barretts Ave,,40.812518,-73.044313,,,0,
10721,,Trolley Line Rd/Great East Neck Rd,,40.695218,-73.34318,,,0,
2344:1,,E Suffolk Ave/Sycamore Ave,,40.79588,-73.177528,,,0,
1559:1,,Fifth Ave/Michigan Ave,,40.763892,-73.261341,,,0,
1893:1,,Middle Country Rd/Ridge Rd,,40.89393,-72.895949,,,0,
3009:1,,Waverly Ave/Haspel Ln,,40.819052,-73.04549799999998,,,0,
47661,,Brentwood LIRR,,40.78083500000001,-73.244159,,,0,
45491,,NYS 110/Amityville Rd,,40.809661,-73.409182,,,0,
1019:1,,NYS 110/Duryea Rd,,40.767583,-73.42341399999998,,,0,
1886:1,,Middle Country Rd/Princeton Blvd,,40.922788,-72.814503,,,0,
2282:1,,Montauk Hwy/N Paquatuck Ave,,40.80191,-72.767579,,,0,
2820:1,,Montauk Hwy/Hampshire Rd,,40.703592,-73.272422,,,0,
3552:1,,Nicolls Rd/Osceola Ave,,40.767917,-73.315995,,,0,
2733:1,,NYS 110/W Smith St,,40.69204400000001,-73.42232199999998,,,0,
43571,,Laurel Rd/Lorraine Ct,,40.89245,-73.336319,,,0,
1957:1,,Middle Country Rd/St Margaret Blvd,,40.881968,-72.946847,,,0,
1258:1,,E Jericho Tpk/Beverly Rd,,40.833982,-73.386471,,,0,
2547:1,,Flanders Rd/Ludlam Ave,,40.91227700000001,-72.647647,,,0,
4249:1,,E Main St/Ostrander Ave,,40.918703,-72.656409,,,0,
3571:1,,N 18th St/Merritt Ave,,40.753869,-73.363967,,,0,
2618:1,,Southaven Ave/Matsunaye Dr,,40.803547,-72.971284,,,0,
3127:1,,Fifth Ave/Santam Ct,,40.745878,-73.263993,,,0,
1164:1,,Belmont Ave/Montgomery Ave,,40.72115800000001,-73.347078,,,0,
2188:1,,NYS 25A/Wading River Manor Rd,,40.943976,-72.842501,,,0,
1697:1,,Vets Hwy/Smithtown Ave,,40.784808,-73.11127399999998,,,0,
3083:1,,NYS 25/Marlene Ln,,40.984982,-72.53838399999998,,,0,
3867:1,,W Suffolk Ave/Islip Ave,,40.787101,-73.21955,,,0,
1109:1,,Grand Blvd/W 13th St,,40.754723,-73.338898,,,0,
3557:1,,Deer Park Ave/Nicolls Rd,,40.765655,-73.331177,,,0,
48481,,Moriches-Riverhead Rd/Eastport Manor Rd,,40.837396,-72.744377,,,0,
4088:1,,Sills Rd/Hewlett Ave,,40.769479,-72.98433,,,0,
46801,,NYS 25A (158),,40.939433,-73.109348,,,0,
2388:1,,Hawkins Ave/School St,,40.83186400000001,-73.108517,,,0,
3966:1,,Mooney Pond Rd/College Rd,,40.851317,-73.044345,,,0,
2134:1,,NYS 112/State St,,40.923331,-73.045497,,,0,
3491:1,,Deer Park Ave/Brennan Pl,,40.764509,-73.330702,,,0,
1923:1,,Caleb Smith State Park,,40.85196100000001,-73.22465099999998,,,0,
2151:1,,NYS 347/Southern Blvd,,40.851631,-73.158206,,,0,
3846:1,,Nichols Rd/Eliot Dr,,40.853946,-73.128105,,,0,
1096:1,,Wolf Hill Rd/Dunford St,,40.81131700000001,-73.390455,,,0,
44061,,Smith St/New Hwy,,40.754749,-73.415349,,,0,
1567:1,,Commack Rd/Genesee Dr,,40.83665,-73.294506,,,0,
2964:1,,NYS 112/Wedgewood Dr,,40.90120000000001,-73.023179,,,0,
46931,,Motor Pkwy/Hoffman Ln,,40.812517,-73.186189,,,0,
2992:1,,Sound Ave/Hulse Landing Rd,,40.950169,-72.801727,,,0,
2991:1,,Fresh Pond Ave/8th St,,40.948786,-72.784092,,,0,
2004:1,,Health Sciences Dr/Nicolls Rd,,40.913727,-73.114795,,,0,
3304:1,,Sound Ave/Fresh Pond Ave,,40.953564,-72.79045499999998,,,0,
2551:1,,Flanders Rd/Pleasure Dr,,40.903301,-72.617422,,,0,
2003:1,,Terryville Rd (51),,40.927175,-73.053004,,,0,
2567:1,,Windmill Ln/White St,,40.889869,-72.39337399999998,,,0,
2233:1,,Portion Rd/Ave D,,40.834626,-73.072795,,,0,
2930:1,,Middle Country Rd/Homestead Dr,,40.873511,-72.98245,,,0,
2924:1,,Middle Country Rd/Hay Rd,,40.89848400000001,-72.877295,,,0,
2623:1,,Station Rd/Tie St,,40.799994,-72.95079,,,0,
2696:1,,NYS 110/Main St,,40.870925,-73.426333,,,0,
2678:1,,Montauk Hwy/Mastic Rd,,40.806042,-72.836161,,,0,
2212:1,,Hulse Landing Rd/19th St,,40.95833600000001,-72.808369,,,0,
1357:1,,Riverhead Centre (W),,40.9258,-72.694367,,,0,
1912:1,,Middle Country Rd/Magnolia Pl,,40.865105,-73.04205399999998,,,0,
2577:1,,E Hampton Sag Harbor Tpk/Stephen Hands Path,,40.971408,-72.22306399999998,,,0,
1285:1,,Montauk Hwy/Douglas Ave,,40.693753,-73.332819,,,0,
2601:1,,NYS 25/Harvest Ln,,41.023207,-72.476266,,,0,
3130:1,,Crooked Hill Rd/Sagtikos Pkwy,,40.801542,-73.282938,,,0,
1799:1,,Middle Country Rd/Parsnip Pond Rd,,40.861435,-73.122105,,,0,
3808:1,,Carleton Ave/Adams St E,,40.740797,-73.19251,,,0,
44701,,Motor Pkwy/S Bedford Ave,,40.81362,-73.166444,,,0,
3929:1,,NYS 25A/Randall Rd,,40.947266,-72.901326,,,0,
1466:1,,Good Samaritan Hospital,,40.695834,-73.294196,,,0,
3166:1,,NYS 110/Merrick Rd,,40.671503,-73.416424,,,0,
1544:1,,Fifth Ave/5th Industrial Ct,,40.753114,-73.262983,,,0,
2785:1,,Deer Park Ave/Grand Blvd,,40.756578,-73.327378,,,0,
1061:1,,Albin Ave/Ave A,,40.700815,-73.352521,,,0,
1464:1,,Montauk Hwy/Oak Neck Ln,,40.697032,-73.283392,,,0,
46701,,Waverly Ave/Gateway Blvd,,40.782278,-73.036642,,,0,
3085:1,,NYS 25/S Jamesport Ave,,40.94968200000001,-72.581253,,,0,
3693:1,,Old Willets Path/Engineers Rd,,40.812444,-73.23316,,,0,
3222:1,,Vets Hwy/Express Dr N,,40.810109,-73.186942,,,0,
2606:1,,Main St/Furrows Rd,,40.807595,-73.074628,,,0,
2574:1,,Bridgehampton Commons,,40.932427,-72.315725,,,0,
1493:1,,Montauk Hwy/Hellwig Ln,,40.696101,-73.292177,,,0,
46391,,Great East Neck Rd/Pratt St,,40.688916,-73.34466399999998,,,0,
3630:1,,Motor Pkwy/Thomas St,,40.806136,-73.264107,,,0,
3873:1,,Old Nichols Rd/Ehrhardt Way,,40.799816,-73.169321,,,0,
3302:1,,North Country Plaza,,40.941376,-72.991831,,,0,
3853:1,,Old Nichols Rd/N Connecting Rd,,40.810667,-73.158523,,,0,
1378:1,,Straight Path/12th St,,40.721239,-73.37805,,,0,
2530:1,,1st St/Adams St,,41.102919,-72.360536,,,0,
43871,,New Hwy/Walnut Rd,,40.711701,-73.403299,,,0,
2100:1,,NYS 112/Long Island Ave,,40.817926,-72.999685,,,0,
1356:1,,Wicks Rd/Polly Dr,,40.79256,-73.265724,,,0,
47391,,NYS 25/Oaklawn Ave,,41.062442,-72.432269,,,0,
1633:1,,Brentwood Rd/Sixth Ave,,40.773224,-73.246116,,,0,
2651:1,,Whittier Dr/Queen Rd,,40.770097,-72.839061,,,0,
2130:1,,NYS 112/E Grove St,,40.904616,-73.02577599999998,,,0,
1351:1,,H Rd/E Rd,,40.793534,-73.285309,,,0,
45261,,North Country Plaza,,40.941226,-72.99074899999998,,,0,
2114:1,,NYS 112/E Lakewood St,,40.773081,-73.007734,,,0,
1021:1,,NYS 110/Ruland Rd,,40.757725,-73.421906,,,0,
1822:1,,LI Macarthur Airport,,40.788905,-73.095106,,,0,
43411,,Rabro Dr/Ranick Rd,,40.811954,-73.230324,,,0,
2597:1,,Old Country Rd/Roanoke Ave,,40.93232,-72.675635,,,0,
47191,,N Columbia St/Woodside Ave,,40.935977,-73.045792,,,0,
1557:1,,Fifth Ave/Connecticut Ave,,40.75735,-73.26219399999998,,,0,
45551,,MYS 110/Wanser Pl,,40.674737,-73.416477,,,0,
44771,,Granny Rd/Horseblock Rd,,40.83124200000001,-73.027068,,,0,
2990:1,,Middle Country Rd/Frances Blvd,,40.92778400000001,-72.76846999999998,,,0,
2450:1,,William Floyd Pkwy/Surrey Cir,,40.79713000000001,-72.865694,,,0,
1283:1,,Bay Shore Ave/Bay Shore Ave,,40.738557,-73.29232399999998,,,0,
3859:1,,E Suffolk Ave/Gibbs Rd,,40.79382,-73.186244,,,0,
3611:1,,Bay Shore Rd/Brookdale Ave,,40.74111,-73.30551199999998,,,0,
48171,,Babylon LIRR,,40.70107,-73.324197,,,0,
3646:1,,Washington Ave/Hale St,,40.795498,-73.24753699999998,,,0,
44641,,NYS 347/Stony Brook Rd,,40.876292,-73.118534,,,0,
46961,,Railroad Ave/NW Link,,40.808124,-73.111251,,,0,
39891,,Lindenhurst LIRR,,40.68811800000001,-73.369443,,,0,
3789:1,,Hawthorne Ave/William Ave,,40.79552000000001,-73.196124,,,0,
1517:1,,Larkfield Rd/Burr Rd,,40.84830800000001,-73.316058,,,0,
1054:1,,N Wellwood Ave/E Hoffman Ave,,40.687216,-73.37383699999998,,,0,
1504:1,,Montauk Hwy/Benson Ave,,40.732599,-73.088581,,,0,
1465:1,,Montauk Hwy/Hellwig Ln,,40.696163,-73.293126,,,0,
2690:1,,Old Country Rd/Kroemer Ave,,40.924279,-72.70406699999998,,,0,
46481,,Union Blvd/Penataquit Ave,,40.728449,-73.239159,,,0,
2132:1,,NYS 112/Central Ave,,40.916817,-73.03574,,,0,
1313:1,,NYS 110/Conklin St (S),,40.738019,-73.42345299999998,,,0,
2953:1,,Circle Rd/Roosevelt Dr,,40.91204,-73.128079,,,0,
3136:1,,Terryville Rd/Norwood Ave,,40.921641,-73.052373,,,0,
3974:1,,Albany Ave/Great Neck Rd,,40.699186,-73.409364,,,0,
2932:1,,Middle Country Rd/Adirondack Dr,,40.867455,-73.030041,,,0,
2038:1,,W Yaphank Rd/Teller Ave,,40.860801,-72.97745999999998,,,0,
2521:1,,Brentwood State Park,,40.790776,-73.273022,,,0,
1897:1,,Middle Country Rd (584),,40.881054,-72.952474,,,0,
2538:1,,NYS 25/Love Ln,,40.991667,-72.533167,,,0,
1035:1,,NYS 110/Harrison Ave,,40.694392,-73.423317,,,0,
2987:1,,W Main St/Court St,,40.918243,-72.669717,,,0,
1135:1,,Wolf Hill Rd/Windsor Pl,,40.811306,-73.388994,,,0,
1988:1,,Union Ave/Sloan Dr,,40.811152,-73.096427,,,0,
46241,,Fifth Ave/Santam Ct,,40.74582500000001,-73.263749,,,0,
1041:1,,Walt Whitman Shops,,40.819168,-73.409845,,,0,
1695:1,,Vets Hwy/Ocean Ave,,40.78671,-73.12085999999998,,,0,
2147:1,,NYS 347/S Plaisted Ave,,40.834141,-73.189006,,,0,
1686:1,,Motor Pkwy/Express Dr N,,40.810437,-73.19347,,,0,
3707:1,,Suffolk Ave/Willoughby St,,40.78432,-73.232268,,,0,
2290:1,,Montauk Hwy/Old Neck Rd,,40.802639,-72.807856,,,0,
3952:1,,Hawkins Ave/Division Rd,,40.823561,-73.107479,,,0,
47551,,NYS 114/Liberty St,,40.995841,-72.283852,,,0,
2235:1,,Nicolls Rd/Sycamore Dr,,40.890794,-73.11149,,,0,
1435:1,,Montauk Hwy/Greene Ave,,40.734533,-73.085063,,,0,
46941,,Nichols Rd/San Juan Dr,,40.821079,-73.151934,,,0,
2264:1,,Sequoya High School,,40.793344,-73.043066,,,0,
3850:1,,Nichols Rd/Townline Rd,,40.828905,-73.148521,,,0,
1246:1,,Washington Ave/Oakland St,,40.802661,-73.248242,,,0,
44151,,Vets Hwy/Wheeler Rd,,40.823339,-73.21003,,,0,
2342:1,,Old Nichols Rd/S Connecting Rd,,40.807587,-73.161548,,,0,
4043:1,,Waverly Ave/Buckley Rd,,40.780671,-73.034722,,,0,
2814:1,,Montauk Hwy/Brentwood Rd,,40.7267,-73.23508099999998,,,0,
1688:1,,Vets Hwy/Sycamore Ave,,40.803593,-73.178096,,,0,
47801,,Riverhead LIRR,,40.919609,-72.667691,,,0,
3289:1,,NYS 347/Willow Wood Dr,,40.901748,-73.077083,,,0,
4270:1,,W Main St (1433),,40.916513,-72.70047599999998,,,0,
3970:1,,Mooney Pond Rd/S Bicycle Path,,40.860049,-73.026466,,,0,
3623:1,,Colonial Springs Rd/Little East Neck Rd,,40.762548,-73.392585,,,0,
1515:1,,East Northport Plaza,,40.85818600000001,-73.3192,,,0,
3788:1,,Hawthorne Ave/Feller Dr,,40.801947,-73.196968,,,0,
1468:1,,Montauk Hwy/Tahlulah Ln,,40.696594,-73.3045,,,0,
4179:1,,Mastic Rd/Riverside Ave,,40.785798,-72.846057,,,0,
1335:1,,Straight Path/52nd St,,40.702697,-73.387817,,,0,
2523:1,,Union Ave/Coates Ave,,40.811959,-73.080916,,,0,
4053:1,,Main St/Railroad Ave,,40.81022,-73.077928,,,0,
1619:1,,Wheeler Rd/Mcgrath St,,40.791714,-73.203055,,,0,
1452:1,,Montauk Hwy/Smith Ave,,40.728651,-73.21630399999998,,,0,
43211,,CR 51/Lake Ave,,40.89786800000001,-72.681432,,,0,
2569:1,,Hampton Rd/Leland Ln,,40.89226,-72.37971,,,0,
1554:1,,Fifth Ave/Brook Ave,,40.742672,-73.263644,,,0,
2110:1,,NYS 112/Terry St,,40.781666,-73.00856899999998,,,0,
1950:1,,Middle Country Rd/Blue Point Rd,,40.866232,-73.03663899999998,,,0,
1469:1,,Montauk Hwy/Eaton Ln,,40.697138,-73.309773,,,0,
2760:1,,Park Ave/Ralph Ave,,40.702075,-73.330278,,,0,
43691,,Albany Ave/Sidney Ct,,40.7162,-73.401865,,,0,
2064:1,,St Charles Hospital,,40.94614,-73.059123,,,0,
2899:1,,E Main St/Lawrence Rd,,40.884381,-73.240498,,,0,
3597:1,,Bay Shore Rd/Penney St,,40.740092,-73.299944,,,0,
2309:1,,Montauk Hwy/Yaphank Ave,,40.790248,-72.914457,,,0,
1274:1,,Deer Park Ave/New Jersey St,,40.780957,-73.337923,,,0,
2314:1,,S Country Rd/Woodruff St,,40.758162,-72.938205,,,0,
43201,,Riverhead Plaza,,40.934311,-72.66491,,,0,
43581,,Fort Salonga Rd/Soper Ave,,40.89908,-73.33072,,,0,
48221,,Waverly Plaza,,40.776942,-73.034096,,,0,
3126:1,,CR 39/Sandy Hollow Rd,,40.898584,-72.409334,,,0,
43621,,Brook Ave/Third Ave,,40.741678,-73.26264999999998,,,0,
3674:1,,Washington Ave/Brevoort Pl,,40.789123,-73.246649,,,0,
46631,,Vets Hwy/Spartan Ln,,40.81534400000001,-73.192637,,,0,
47671,,Brentwood LIRR,,40.780908,-73.243846,,,0,
2673:1,,W Main St/Mill Rd,,40.914981,-72.687932,,,0,
3732:1,,Broadway/O Rourke St,,40.76889700000001,-73.225627,,,0,
2615:1,,La Bonne Vie Dr/Club Dr,,40.79022100000001,-72.977166,,,0,
1794:1,,Midle Country Rd/Fairview St,,40.85553,-73.17230499999998,,,0,
43551,,Fifth Ave/Candlewood Rd,,40.767865,-73.260846,,,0,
2304:1,,William Floyd Pkwy/Tudor Rd W,,40.793506,-72.865385,,,0,
21441,,NYS 347/Brooksite Dr,,40.826413,-73.206492,,,0,
3559:1,,Nicolls Rd/Venedia Dr,,40.76095500000001,-73.353328,,,0,
3655:1,,Pine Aire Dr/Savoy Ave,,40.774975,-73.26590899999998,,,0,
3865:1,,W Suffolk Ave/Joshuas Path,,40.787587,-73.21767699999998,,,0,
44281,,Belmont Ave/Claremont Ave,,40.724489,-73.346358,,,0,
48231,,Sunrise Hwy N Service Rd/Spruce Dr,,40.774316,-73.042102,,,0,
47841,,Patchogue LIRR,,40.761665,-73.014591,,,0,
2774:1,,E Jericho Tpk/Melville Rd,,40.831303,-73.394319,,,0,
3434:1,,Albany Ave/Bayview Ave,,40.69289400000001,-73.411492,,,0,
4071:1,,Montauk Hwy/Shoestring Ln,,40.799633,-72.89339699999998,,,0,
45311,,Montauk Hwy/Newins St,,40.800357,-72.792383,,,0,
2184:1,,Fresh Pond Ave/8th St,,40.949115,-72.784469,,,0,
2755:1,,Grand Blvd/W 4th St,,40.75628,-73.331252,,,0,
1887:1,,Middle Country Rd/Kay Rd,,40.919381,-72.824547,,,0,
3812:1,,Hawthorne Ave/Motor Pkwy,,40.804272,-73.19711,,,0,
2664:1,,NYS 347/Terry Rd,,40.847369,-73.170956,,,0,
2007:1,,NYS 25A/The Hills Dr,,40.935518,-73.110615,,,0,
1033:1,,NYS 110/Ritter Ave,,40.702488,-73.426851,,,0,
2833:1,,Jericho Tpk/Rural Pl,,40.841569,-73.304847,,,0,
46601,,Lowell Ave/Cypress St,,40.784465,-73.190934,,,0,
47701,,Central Islip LIRR,,40.791488,-73.197117,,,0,
2075:1,,Oser Ave/Marcus Blvd,,40.817461,-73.247908,,,0,
2600:1,,NYS 25/New Suffolk Rd,,41.010967,-72.48496,,,0,
3087:1,,Flanders Rd/Cypress Ave,,40.909772,-72.632945,,,0,
4080:1,,Patchogue-Holbrook Rd/Somerset Dr,,40.799816,-73.064227,,,0,
2366:1,,Montauk Hwy/Munsell Rd,,40.77191100000001,-72.955808,,,0,
2920:1,,Middle Country Rd/Princeton Blvd,,40.923003,-72.814449,,,0,
46901,,Waverly Ave/Gateway Blvd,,40.781974,-73.036753,,,0,
1067:1,,Montauk Hwy/Great East Neck Rd,,40.686045,-73.344897,,,0,
3575:1,,Grand Blvd/W 23rd St,,40.752595,-73.348293,,,0,
2408:1,,Holbrook Rd/Waverly Ave,,40.767274,-73.022354,,,0,
1802:1,,Hawkins Rd/Dual Dr,,40.84054,-73.112862,,,0,
3182:1,,Flanders Rd/Old Riverhead Rd,,40.885067,-72.540783,,,0,
1890:1,,Middle Country Rd/Crescent Bow,,40.90196000000001,-72.863438,,,0,
4019:1,,Boyle Rd/Rush St,,40.893253,-73.053669,,,0,
47761,,Smith Haven Mall,,40.864998,-73.13229,,,0,
2240:1,,Hulse Landing Rd/16th St,,40.960068,-72.809518,,,0,
2536:1,,NYS 25/Sterling Ln,,41.018806,-72.480283,,,0,
1997:1,,Circle Rd/Tabler Dr,,40.910353,-73.124152,,,0,
3996:1,,Middle Country Rd/Rustic Rd,,40.85799500000001,-73.093112,,,0,
2354:1,,Mooney Pond Rd/S Bicycle Path,,40.860209,-73.026497,,,0,
4029:1,,College Rd/Palm St,,40.854014,-73.046163,,,0,
4294:1,,Halesite Fire Department,,40.888839,-73.416,,,0,
3902:1,,NYS 25A/Westchester Dr,,40.944957,-72.95920599999998,,,0,
2968:1,,NYS 112/Granny Rd,,40.84635,-72.997317,,,0,
1099:1,,Carman Rd/Carman Ct,,40.79694400000001,-73.37832899999998,,,0,
3608:1,,Sunrise Hwy N Service Rd/Howells Rd,,40.73092900000001,-73.273037,,,0,
1867:1,,Portion Rd/Foster Rd,,40.827343,-73.10187,,,0,
2917:1,,Osborn Ave/Pulaski St,,40.921802,-72.670725,,,0,
3803:1,,Central Islip LIRR,,40.791739,-73.195866,,,0,
2572:1,,Montauk Hwy/Station Rd,,40.911425,-72.35127,,,0,
4244:1,,Brentwood Rd/Union Blvd,,40.729479,-73.235588,,,0,
47781,,Smith Haven Mall,,40.86493200000001,-73.132715,,,0,
2301:1,,William Floyd Plaza,,40.781719,-72.864619,,,0,
4024:1,,Boyle Rd/Imperial Dr,,40.876211,-73.051348,,,0,
2979:1,,NYS 112/Columbia St,,40.76775,-73.007208,,,0,
46151,,Middleville Rd/Fox Hollow Ridings Rd,,40.898993,-73.32252699999998,,,0,
3586:1,,Deer Park Ave/Jaqueline Way,,40.74864,-73.324037,,,0,
3927:1,,Robert Moses State Park,,40.623699,-73.265021,,,0,
2694:1,,NYS 110/Prime Ave,,40.877203,-73.423156,,,0,
3393:1,,NYS 110/Dixon Ave,,40.684244,-73.41802199999998,,,0,
2582:1,,Sills Rd/Hewlett Ave,,40.769342,-72.984846,,,0,
1510:1,,Northport LIRR,,40.88088900000001,-73.326817,,,0,
2960:1,,Terryville Rd/Ardmer Dr,,40.924928,-73.05274199999998,,,0,
1564:1,,Old Willets Path/Engineers Rd,,40.813339,-73.232883,,,0,
1192:1,,Executive Dr (100),,40.774411,-73.29199199999998,,,0,
3172:1,,Montauk Hwy/Venetian Promenade,,40.672533,-73.377133,,,0,
1917:1,,Middle Country Rd/N Howell Ave,,40.860188,-73.073215,,,0,
1728:1,,Vets Hwy/13th Ave,,40.78900500000001,-73.144908,,,0,
3878:1,,NYS 347/Stony Brook Rd,,40.876503,-73.117524,,,0,
4238:1,,Mastic Rd/Market St,,40.786758,-72.845511,,,0,
2734:1,,NYS 110/Washington Ave,,40.688897,-73.420283,,,0,
3924:1,,Middle Country Rd/Village Dr,,40.891958,-72.89993,,,0,
2756:1,,Deer Park Ave/Church St,,40.755516,-73.326977,,,0,
2921:1,,Middle Country Rd/Kay Rd,,40.919622,-72.824467,,,0,
3500:1,,Grand Blvd/Commack Rd,,40.760823,-73.311349,,,0,
3633:1,,Community College Dr/Wicks Rd,,40.795853,-73.267926,,,0,
2702:1,,NYS 110/W 9th St,,40.8471,-73.411614,,,0,
43501,,Executive Dr/Long Island Ave,,40.77227400000001,-73.29190699999998,,,0,
2823:1,,South St/West Ave,,40.76439100000001,-73.018355,,,0,
45291,,Pond Path/Sunflower Ridge Rd,,40.883523,-73.102743,,,0,
1781:1,,E Main St/Cosmo Pl,,40.88329800000001,-73.232253,,,0,
47571,,NYS 114/Goodfriend Dr,,40.97123100000001,-72.240403,,,0,
46781,,SUNY Stony Brook University Hospital,,40.908388,-73.111635,,,0,
3847:1,,Nichols Rd/Browns Rd,,40.84985000000001,-73.131725,,,0,
46111,,Fort Salonga Rd/Harrison Dr,,40.89703200000001,-73.33385699999998,,,0,
3025:1,,Montauk Hwy/Yaphank Ave,,40.79041800000001,-72.914475,,,0,
3869:1,,W Suffolk Ave/Allyn Ln,,40.7898,-73.205717,,,0,
1231:1,,Babylon LIRR,,40.700119,-73.325681,,,0,
3536:1,,Brook St/Westside Ave,,40.729425,-73.24622599999998,,,0,
3000:1,,NYS 25A/Mt Sinai Coram Rd,,40.937006,-73.014285,,,0,
2375:1,,Station Rd/Hollow St,,40.79400600000001,-72.948978,,,0,
1527:1,,Crooked Hill Commons,,40.81324,-73.292659,,,0,
44331,,Mount Ave/Wyandanch Ave,,40.741848,-73.35790799999998,,,0,
1172:1,,North Dr/County Center Rd,,40.82595,-73.229967,,,0,
3362:1,,Montauk Hwy/School St,,40.935573,-72.305559,,,0,
1954:1,,Middle Country Rd/Country Club Dr,,40.872657,-72.988679,,,0,
3948:1,,Hawkins Ave/Union Ave (E),,40.810128,-73.108026,,,0,
2842:1,,Fifth Ave/Spur Dr S,,40.74755,-73.263686,,,0,
1955:1,,Middle Country Rd/Erna Dr,,40.87446700000001,-72.977959,,,0,
46501,,Colonial Springs Rd/Briarwood Rd,,40.759507,-73.38533099999998,,,0,
3565:1,,Smith St/NYS 110,,40.754394,-73.420444,,,0,
1502:1,,Washington Ave/Brevoort Pl,,40.788854,-73.246753,,,0,
1960:1,,Middle Country Rd/Sally Ln,,40.894905,-72.88786,,,0,
1947:1,,Middle Country Rd/Horseblock Rd,,40.859411,-73.077252,,,0,
4248:1,,E Main St/McDermott Ave,,40.9174,-72.66036699999998,,,0,
2570:1,,Hampton Rd/Narrow Ln,,40.894295,-72.376611,,,0,
1490:1,,Montauk Hwy/Sequams Ln,,40.696873,-73.31223,,,0,
2359:1,,SUNY Stony Brook University Hospital,,40.90853,-73.112109,,,0,
43151,,Brentwood LIRR,,40.7811,-73.242947,,,0,
1730:1,,Vets Hwy/Sycamore Ln,,40.804237,-73.178376,,,0,
3214:1,,Montauk Hwy/Brook St,,40.733297,-73.114953,,,0,
43981,,Bay Shore Rd/Thompson Dr,,40.734745,-73.281062,,,0,
1445:1,,Bayard Cutting Arboretum,,40.739733,-73.16283199999998,,,0,
2986:1,,NYS 25A/W Gate Dr,,40.934091,-73.025567,,,0,
2963:1,,NYS 112/Wyckoff Ave,,40.92763200000001,-73.049933,,,0,
2704:1,,NYS 110/E 12th St,,40.84229400000001,-73.412119,,,0,
3006:1,,Waverly Ave/1st St,,40.834314,-73.048104,,,0,
2128:1,,Portion Rd/Holbrook Rd,,40.832155,-73.083466,,,0,
4171:1,,Herkimer St/Carlton Ave,,40.805267,-72.840583,,,0,
2204:1,,NYS 25A/Miller Place Rd,,40.941606,-72.987261,,,0,
47101,,NYS 112/Washington Ave,,40.913201,-73.031018,,,0,
3965:1,,SCCC - Selden Campus,,40.846439,-73.05340099999998,,,0,
47851,,Patchogue LIRR,,40.76169500000001,-73.01438,,,0,
1457:1,,Pine Aire Dr/Savoy Ave,,40.775008,-73.266424,,,0,
47501,,NYS 25/Main Bayview Rd,,41.05561200000001,-72.43496399999998,,,0,
47641,,Brentwood LIRR,,40.780675,-73.24485,,,0,
2604:1,,Wading River Manor Rd/NYS 25A,,40.94422,-72.842083,,,0,
4266:1,,Riverhead Landing,,40.934547,-72.698258,,,0,
3866:1,,Suffolk Ave/Joshuas Path,,40.78703800000001,-73.22101499999998,,,0,
2886:1,,Jericho Tpk/Larkfield Rd,,40.840478,-73.314353,,,0,
3980:1,,Mooney Pond Rd/College Rd,,40.851202,-73.045359,,,0,
2766:1,,Pine Aire Dr/Manatuck Blvd,,40.77298900000001,-73.275236,,,0,
1093:1,,New York Ave/Edison Dr,,40.81685,-73.40764,,,0,
4174:1,,Terryville Rd/Old Town Rd,,40.900228,-73.049964,,,0,
4068:1,,William Floyd Pkwy/Coraci Blvd,,40.771927,-72.868163,,,0,
3503:1,,E Industry Ct/Grand Blvd,,40.761143,-73.297237,,,0,
3363:1,,Toilsome Ln/Gingerbread Ln,,40.96351700000001,-72.199608,,,0,
2748:1,,Carman Rd/Langhans Ct,,40.805111,-73.379983,,,0,
2695:1,,NYS 110/Union Pl,,40.873867,-73.425214,,,0,
1514:1,,Larkfield Rd/Meadow Lark Dr,,40.862828,-73.320639,,,0,
2811:1,,Oakdale LIRR,,40.742519,-73.13206099999998,,,0,
3375:1,,Southampton Town Hall,,40.887661,-72.38643399999998,,,0,
47831,,Patchogue LIRR,,40.76163300000001,-73.014803,,,0,
2294:1,,Mastic Rd/Madison St,,40.780662,-72.847971,,,0,
4285:1,,E Main St/Benjamin Pl,,40.917387,-72.660946,,,0,
2042:1,,Gordon Ave/Rose Ln,,40.853944,-72.96807699999998,,,0,
44901,,Granny Rd/Richard Dr,,40.852094,-72.969314,,,0,
3634:1,,SCCC - Brentwood Campus,,40.797072,-73.273961,,,0,
1513:1,,Larkfield Rd/Clay Pitts Rd,,40.865169,-73.321117,,,0,
1359:1,,NY State Office Building,,40.821094,-73.220025,,,0,
1645:1,,NYS 111/NYS 347,,40.828657,-73.199723,,,0,
3014:1,,Waverly Ave/Mowbray St,,40.774238,-73.028474,,,0,
1257:1,,E Jericho Tpk/Pidgeon Hill Rd,,40.832889,-73.389786,,,0,
1756:1,,St Johnland Rd/Oakside Rd,,40.87168900000001,-73.219679,,,0,
2585:1,,Hampton Rd/Potato Field Ln,,40.894728,-72.37629,,,0,
3998:1,,Middle Country Rd/Pleasant Ave,,40.858259,-73.085634,,,0,
4104:1,,Second Ave/Union Blvd,,40.726143,-73.247229,,,0,
3435:1,,Albany Ave/Delaware Ave,,40.69655800000001,-73.410562,,,0,
2293:1,,Montauk Hwy/Montgomery Ave,,40.806508,-72.838942,,,0,
1138:1,,Park Ave/Ralph Ave,,40.70217800000001,-73.330225,,,0,
1463:1,,Montauk Hwy/Hampshire Rd,,40.703406,-73.272464,,,0,
1176:1,,Rabro Dr/Constance Ct,,40.81278300000001,-73.225081,,,0,
3817:1,,Carleton Ave/Beaver Dam Rd,,40.750549,-73.194436,,,0,
4188:1,,Neighborhood Rd/Elder Dr,,40.762647,-72.85636,,,0,
1748:1,,E Main St/Hemlock Ln N,,40.855572,-73.179784,,,0,
2718:1,,NYS 110/N Service Rd,,40.784501,-73.417399,,,0,
2462:1,,Boyle Rd/Hawthorne St,,40.88142,-73.051885,,,0,
3175:1,,Aldersgate (E),,40.94224,-72.67542899999998,,,0,
3787:1,,Hawthorne Ave/Motor Pkwy,,40.804184,-73.197248,,,0,
1731:1,,Vets Hwy/Express Dr S,,40.807963,-73.183569,,,0,
3119:1,,North Hwy/Oakhurst Rd,,40.89342400000001,-72.49059099999998,,,0,
4184:1,,Whittier Dr/Neighborhood Rd,,40.76678600000001,-72.837736,,,0,
4283:1,,E Main St/Howell Ave,,40.922039,-72.653178,,,0,
1188:1,,Pine Aire Dr/Manatuck Blvd,,40.772861,-73.275233,,,0,
1498:1,,Montauk Hwy/N Ocean Ave,,40.727992,-73.21915199999998,,,0,
3080:1,,NYS 25/Peconic Ln,,41.040493,-72.45504,,,0,
46591,,Carleton Ave/S Research Pl,,40.770846,-73.197947,,,0,
2012:1,,NYS 25A/Van Brunt Manor Rd,,40.945809,-73.091342,,,0,
2369:1,,Mooney Pond Rd/Brettonwoods Dr,,40.864511,-73.012044,,,0,
3183:1,,Flanders Rd/Old Riverhead Rd,,40.88465,-72.540533,,,0,
47141,,N Country Rd/Sea Ct Ln,,40.938092,-73.049975,,,0,
44671,,Islandia Shopping Center,,40.80072,-73.177188,,,0,
3003:1,,Wading River Manor Rd/Charles St,,40.946493,-72.84249,,,0,
3756:1,,Montauk Hwy/Overlook Dr,,40.735091,-73.172678,,,0,
44621,,Circle Rd/Shirley Kenny Dr,,40.913812,-73.11900199999998,,,0,
48331,,Court House Dr/2nd St,,40.76405,-73.195047,,,0,
43861,,Albany Ave/Hicks St,,40.716143,-73.402036,,,0,
45891,,Old Willets Path/Mobrey Ln,,40.838994,-73.236701,,,0,
3390:1,,W Oak St/NYS 110,,40.67917,-73.418261,,,0,
44221,,Carleton Ave/Manhattan Blvd,,40.753673,-73.195034,,,0,
2257:1,,Waverly Ave/1st St,,40.834251,-73.047957,,,0,
48041,,Montauk Hwy/Riverhead Hampton Bays Rd,,40.875692,-72.534595,,,0,
3687:1,,Oser Ave (301),,40.816544,-73.259657,,,0,
1002:1,,NYS 110/Jericho Tpk,,40.828786,-73.411153,,,0,
24321,,N Belle Mead Rd/Technology Dr,,40.897617,-73.08902399999998,,,0,
48351,,Carleton Ave/Moffitt Blvd,,40.737859,-73.192116,,,0,
2579:1,,Aldersgate (S),,40.93834300000001,-72.6739,,,0,
2153:1,,NYS 347/Gibbs Pond Rd,,40.852793,-73.149477,,,0,
3475:1,,Montauk Hwy/S Broadway,,40.675135,-73.371287,,,0,
2239:1,,Hulse Landing Rd/N Wading River Rd,,40.963839,-72.811738,,,0,
44041,,Deshon Dr/Marcus Dr,,40.760864,-73.409808,,,0,
1439:1,,Montauk Hwy/Dale Dr,,40.730941,-73.109618,,,0,
2749:1,,Carman Rd/Carman Ct,,40.796495,-73.378082,,,0,
1737:1,,Vets Hwy/Valleywood Rd,,40.835161,-73.267141,,,0,
44661,,Hawkins Ave/Carlson Rd,,40.822055,-73.107735,,,0,
3419:1,,Albany Ave/New Hwy,,40.708614,-73.4029,,,0,
47311,,Riverhead Centre,,40.926958,-72.698645,,,0,
3684:1,,Moreland Rd/Commerce Dr,,40.810235,-73.270324,,,0,
44541,,St Charles Hospital,,40.946038,-73.058806,,,0,
1162:1,,Belmont Ave/Throop St,,40.727467,-73.345994,,,0,
2068:1,,NYS 25A/Hoyt Ln,,40.944943,-73.080673,,,0,
1118:1,,Deer Park Ave/Edmunton Dr,,40.719011,-73.322428,,,0,
45051,,Islandia Shopping Center,,40.800771,-73.177342,,,0,
2556:1,,North Rd/Old Canoe Place Rd,,40.88584800000001,-72.49965,,,0,
1127:1,,Deer Park Ave/Cooper Rd,,40.724731,-73.322694,,,0,
1374:1,,Straight Path/20th St,,40.748036,-73.363808,,,0,
24471,,Yaphank Ave/Gerard Rd,,40.820336,-72.916155,,,0,
2888:1,,Vets Hwy/Motor Pkwy,,40.813843,-73.191311,,,0,
44301,,Belmont Ave/Commissioner's Rd,,40.73047,-73.34538,,,0,
3389:1,,Amityville LIRR,,40.680316,-73.420411,,,0,
1107:1,,Wyandanch LIRR,,40.754481,-73.35842,,,0,
47591,,Amityville LIRR,,40.680156,-73.420832,,,0,
3526:1,,Brook Ave/Redington St,,40.729726,-73.245787,,,0,
3625:1,,Monatuk Hwy/Cemetery Rd,,40.877109,-72.528763,,,0,
46321,,Montauk Hwy/Maple Ave,,40.684129,-73.352014,,,0,
4052:1,,Union Ave/Coates Ave,,40.812082,-73.08186499999998,,,0,
2672:1,,W Main St/Mill Rd,,40.916162,-72.68884199999998,,,0,
2810:1,,Montauk Hwy/Ockers Dr,,40.739392,-73.123211,,,0,
44981,,Ocean Ave/Express Dr N,,40.8142,-73.125155,,,0,
3305:1,,Fresh Pond Ave/1st St,,40.951999,-72.785559,,,0,
48521,,Nugent Dr/Pinehurst Blvd,,40.905436,-72.718309,,,0,
3637:1,,Wicks Rd/Hancock St,,40.788678,-73.264255,,,0,
3108:1,,Terryville Rd/Old Town Rd,,40.900692,-73.049857,,,0,
1959:1,,Middle Country Rd/Medford Rd,,40.893914,-72.895245,,,0,
1092:1,,New York Ave/Saddler Ct,,40.824975,-73.408153,,,0,
46721,,Union Ave/Knickerbocker Ave,,40.811468,-73.091212,,,0,
1193:1,,Rodeo Dr/Mercedes Way,,40.782478,-73.288714,,,0,
1998:1,,Circle Rd/Engineering Dr,,40.91103300000001,-73.125946,,,0,
2625:1,,Station Rd/Martha Ave,,40.78638500000001,-72.94666599999998,,,0,
3300:1,,Hawkins Ave/Carlson Rd,,40.822204,-73.107563,,,0,
2090:1,,NYS 112/Towne Woods Rd,,40.874755,-73.008385,,,0,
2703:1,,NYS 110/W 11th St,,40.843744,-73.41206699999998,,,0,
2149:1,,NYS 347/Helen Ave,,40.84344500000001,-73.17505,,,0,
3619:1,,Deer Park Ave/Garnet St,,40.742225,-73.321968,,,0,
3610:1,,Bay Shore Rd/Callahan St,,40.74034000000001,-73.301034,,,0,
1760:1,,E Main St/Juniper Rd,,40.882947,-73.229532,,,0,
1421:1,,Montauk Hwy/River Ave,,40.76433500000001,-73.023949,,,0,
2971:1,,NYS 112/Horseblock Rd,,40.828333,-72.99535,,,0,
3715:1,,Broadway/Mockingbird Ln,,40.768823,-73.225765,,,0,
2069:1,,NYS 25A/Washington St,,40.945589,-73.08600199999998,,,0,
1874:1,,Islip Town Hall,,40.729756,-73.211035,,,0,
3029:1,,Montauk Hwy/N Dunton Ave,,40.770643,-72.963635,,,0,
3017:1,,Montauk Hwy/Hawkins Ave,,40.799942,-72.786403,,,0,
47321,,Main Rd/Manor Pl,,41.109785,-72.363675,,,0,
1894:1,,Montauk Hwy/Yockel Pl,,40.73375,-73.179064,,,0,
2352:1,,Port Jefferson LIRR,,40.93375000000001,-73.05413299999998,,,0,
4035:1,,College Rd/Middle Country Rd,,40.863306,-73.047473,,,0,
2045:1,,Seymour Ln/Hawkins Ave,,40.858985,-72.96744,,,0,
2726:1,,NYS 110/Smith St,,40.75355,-73.42243,,,0,
4181:1,,Siena Village,,40.86629700000001,-73.225948,,,0,
3831:1,,Montauk Hwy/Champlin Ave,,40.732647,-73.183933,,,0,
44481,,Montauk Hwy/Cooper St,,40.69713200000001,-73.31959,,,0,
45761,,Grand Blvd/Marcus Blvd,,40.759917,-73.31540099999998,,,0,
45341,,Horseblock Rd/Pinehurst Dr,,40.806669,-72.943866,,,0,
1281:1,,Deer Park Ave/Grand Blvd,,40.757744,-73.32750799999998,,,0,
2819:1,,Montauk Hwy/Southwood Ct,,40.705036,-73.267908,,,0,
2922:1,,Middle Country Rd/Wading River Manor Rd,,40.91417400000001,-72.835184,,,0,
1879:1,,Osborn Ave/Pulaski St,,40.921697,-72.670806,,,0,
45801,,Middle Country Rd/Moriches Rd,,40.861995,-73.130438,,,0,
48541,,Third Ave/Mechanicsville Rd,,40.723458,-73.247685,,,0,
2564:1,,CR 39/Summer Dr,,40.89785,-72.40689999999998,,,0,
2295:1,,Mastic Beach Rd/Mastic Rd,,40.77897,-72.848003,,,0,
1001:1,,NYS 110/E 21st St,,40.833103,-73.41099199999998,,,0,
46671,,Lowell Ave/Cypress St,,40.78407700000001,-73.191044,,,0,
2612:1,,Montauk Hwy/Buffin Ln,,40.752492,-73.03961099999998,,,0,
1712:1,,Montauk Hwy/N Prospect Ave,,40.760984,-73.02993499999998,,,0,
3959:1,,Portion Rd/Holbrook Rd,,40.83237900000001,-73.08122899999998,,,0,
44321,,Mount Ave/Governor Ave,,40.73427,-73.34942599999998,,,0,
2284:1,,Montauk Hwy/Bellview Ave,,40.80190300000001,-72.780922,,,0,
1438:1,,Montauk Hwy/Rollstone Ave,,40.727959,-73.09875,,,0,
1692:1,,Suffolk County Social Services,,40.787879,-73.136533,,,0,
2099:1,,NYS 112/Waverly Ave,,40.822058,-72.997838,,,0,
44911,,Granny Rd/Mill Rd,,40.85045,-72.974692,,,0,
43351,,Deer Park Ave/Brennan Pl,,40.76431500000001,-73.330264,,,0,
2082:1,,NYS 112/Central Ave,,40.916272,-73.035202,,,0,
1179:1,,Oser Ave (40),,40.816117,-73.23799699999998,,,0,
1657:1,,Brentwood Rd/Tennessee Ave,,40.75052800000001,-73.24283699999998,,,0,
2508:1,,Union Ave/Laurel St,,40.81166300000001,-73.086544,,,0,
46531,,Clinton Ave/Henry Pl,,40.727402,-73.260137,,,0,
46681,,Carleton Ave/S Research Pl,,40.770382,-73.19817,,,0,
3561:1,,Long Island Ave/Straight Path,,40.754044,-73.360983,,,0,
47531,,Bridgehampton Sag Harbor Tpk/Paumanok Path,,40.983527,-72.301715,,,0,
43541,,Brook Ave/Abrew St,,40.73893300000001,-73.25472499999998,,,0,
48411,,NYS 112/Willow Dr,,40.857039,-72.99827,,,0,
1122:1,,Deer Park Ave/Park Ave,,40.701595,-73.322244,,,0,
1721:1,,Johnson Ave/Carlough Rd,,40.775445,-73.093902,,,0,
4309:1,,NYS 110/E 9th St,,40.84659700000001,-73.411411,,,0,
1098:1,,Carman Rd/Langhans Ct,,40.805665,-73.37999,,,0,
3751:1,,Montauk Hwy/William Ave,,40.730545,-73.19372,,,0,
48571,,Fifth Ave/Union Blvd,,40.7232,-73.255554,,,0,
3173:1,,Montauk Hwy/S Wellwood Ave,,40.67815,-73.3645,,,0,
2091:1,,NYS 112/Old Middle Country Rd,,40.87023400000001,-73.004806,,,0,
1920:1,,Middle Country Rd/Hawkton Pl,,40.860566,-73.11467,,,0,
1895:1,,Middle Country Rd/Yaphank Middle Island Rd,,40.88333200000001,-72.940886,,,0,
2023:1,,Terryville Rd/Viceroy Pl,,40.909414,-73.051101,,,0,
47201,,Montauk Hwy/Potter Ave,,40.765991,-73.006315,,,0,
47991,,Great East Neck Rd/Arnold Ave,,40.700539,-73.342706,,,0,
2596:1,,Old Country Rd/Harrison Ave,,40.930361,-72.680203,,,0,
1126:1,,Deer Park Ave/Burnage Ln,,40.713587,-73.321246,,,0,
48381,,Hawkins Ave/Portion Rd,,40.82618,-73.107331,,,0,
1476:1,,Montauk Hwy/Bayport Ave,,40.747028,-73.051147,,,0,
47461,,NYS 25/Brecknock Rd,,41.115863,-72.36238899999998,,,0,
3004:1,,Middle Country Rd/N Coleman Rd,,40.861,-73.064485,,,0,
1362:1,,Suffolk County North Complex (E),,40.82803100000001,-73.231418,,,0,
45001,,Richmond Blvd/Rosevale Ave,,40.82689400000001,-73.133798,,,0,
1289:1,,Montauk Hwy/Bergen Ave,,40.685853,-73.345008,,,0,
2463:1,,Nicolls Rd/Fox Hunt Ln,,40.900738,-73.114576,,,0,
44021,,Howells Rd/Richland Blvd,,40.730855,-73.266972,,,0,
3733:1,,Broadway/Hilton St,,40.775525,-73.22654199999998,,,0,
1450:1,,Washington Ave/Mcwhorter St,,40.781651,-73.246278,,,0,
3648:1,,Washington Ave/Flick Pl,,40.786049,-73.246244,,,0,
2959:1,,NYS 25A/Van Brunt Manor Rd,,40.945932,-73.09173199999998,,,0,
2847:1,,Joshuas Path/Commercial Blvd,,40.798956,-73.21833599999998,,,0,
43441,,Calebs Path/Vanderbilt Ave,,40.79490100000001,-73.225194,,,0,
2127:1,,NYS 112/Barone Dr,,40.880317,-73.010285,,,0,
1316:1,,NYS 110/Executive Blvd,,40.718358,-73.42643099999998,,,0,
47711,,Central Islip LIRR,,40.79153,-73.196909,,,0,
2014:1,,NYS 25A/Red Barn Ln,,40.944805,-73.08080699999998,,,0,
1492:1,,Montauk Hwy/West Bay Dr,,40.695347,-73.297814,,,0,
2221:1,,NYS 25A/Jackson St,,40.947912,-72.916882,,,0,
3843:1,,Nicolls Rd/Sycamore Dr,,40.89098700000001,-73.111135,,,0,
30501,,Yaphank Ave/Gerard Rd,,40.820152,-72.916388,,,0,
1958:1,,Strathmore Commons,,40.886049,-72.92361,,,0,
1882:1,,Middle Country Rd/Manor Rd,,40.925921,-72.736519,,,0,
2540:1,,NYS 25/Laurel Ln,,40.96548700000001,-72.564517,,,0,
2182:1,,Middle Country Rd/Fresh Pond Ave,,40.928273,-72.774345,,,0,
2411:1,,NYS 347/Old Town Rd,,40.909048,-73.065798,,,0,
47401,,NYS 25/Oaklawn Ave,,41.062294,-72.43300499999998,,,0,
1196:1,,S 2nd St/Dunton Ave,,40.767432,-73.294735,,,0,
3708:1,,Suffolk Ave/Brentwood Pkwy,,40.782087,-73.242658,,,0,
3780:1,,Wheeler Rd/Oakdale Ave,,40.794325,-73.205055,,,0,
1232:1,,N Country Rd/2nd Ave,,40.937981,-73.048575,,,0,
45281,,NYS 347/Terryville Rd,,40.917448,-73.053828,,,0,
3820:1,,Montauk Hwy/Sommerset Ave,,40.730325,-73.196472,,,0,
2101:1,,NYS 112/Jamaica Ave,,40.813083,-73.000951,,,0,
2535:1,,NYS 25/Cox Ln,,41.022411,-72.477081,,,0,
2302:1,,William Floyd Pkwy/Lawrence Rd,,40.786715,-72.86357,,,0,
2104:1,,NYS 112/Southaven Ave,,40.80159,-73.004683,,,0,
1171:1,,Straight Path/Nicolls Rd,,40.75980400000001,-73.357376,,,0,
2927:1,,Middle Country Rd/Old Middle Country Rd,,40.878869,-72.961162,,,0,
3563:1,,Nicolls Rd/N 18th St,,40.758092,-73.365939,,,0,
4101:1,,Station Rd/Tarpon Ave,,40.80439100000001,-72.952292,,,0,
1082:1,,E John St/N Erie Ave,,40.691969,-73.366467,,,0,
47981,,W Main St/Edgewood Ave,,40.856851,-73.204397,,,0,
2956:1,,NYS 25A/Main St,,40.941354,-73.106446,,,0,
2975:1,,NYS 112/Tremont Ave,,40.806367,-73.003379,,,0,
2565:1,,Patchogue-Holbrook Rd/Greenbelt Pkwy,,40.78915,-73.048777,,,0,
45121,,Suffolk Ave/Islip Ave,,40.786513,-73.222452,,,0,
3090:1,,Montauk Hwy/Ponquogue Ave,,40.878549,-72.521839,,,0,
47211,,Montauk Hwy/Orchard Rd,,40.76913600000001,-72.971333,,,0,
2790:1,,Straight Path/35th St,,40.692652,-73.393429,,,0,
3875:1,,Nob Hill Condominiums,,40.826532,-73.147889,,,0,
2628:1,,Station Rd/Beaver Dam Rd,,40.77274100000001,-72.942485,,,0,
3949:1,,Hawkins Ave/Thorne St,,40.814758,-73.107973,,,0,
2575:1,,Bridgehampton Sag Harbor Tpk/Montauk Hwy,,40.938456,-72.300586,,,0,
44251,,Belmont Ave/Sheffield Ave,,40.719227,-73.347269,,,0,
2653:1,,Whittier Dr/Neighborhood Rd,,40.76698600000001,-72.837667,,,0,
2982:1,,NYS 347/N Belle Mead Rd,,40.894104,-73.089145,,,0,
2272:1,,Waverly Ave/W 2nd St,,40.768412,-73.026446,,,0,
3489:1,,Nicolls Rd/Totten Ave,,40.764275,-73.337762,,,0,
1303:1,,E Jericho Tpk/Poplar Ave,,40.828347,-73.405511,,,0,
2692:1,,NYS 110/Mill Dam Rd,,40.88347000000001,-73.41936,,,0,
2759:1,,Deer Park Ave/Park Ave,,40.701761,-73.322036,,,0,
46741,,Hawkins Ave/Win Pl,,40.845253,-73.11365499999998,,,0,
3647:1,,Washington Ave/Sherman St,,40.792249,-73.247024,,,0,
4084:1,,Montauk Hwy/Grove Ave,,40.766483,-73.001177,,,0,
2906:1,,Rosevale Ave/Kirk Ave,,40.822744,-73.128379,,,0,
48151,,Babylon LIRR,,40.70108,-73.324565,,,0,
1333:1,,Straight Path/41st St,,40.695169,-73.391878,,,0,
1481:1,,Montauk Hwy/Foster Ave,,40.738036,-73.079847,,,0,
2571:1,,Montauk Hwy/Flying Point Rd,,40.899609,-72.369871,,,0,
1654:1,,Fifth Ave/Marc Ct,,40.72176300000001,-73.25373,,,0,
48441,,NYS 112/Cleveland St,,40.770186,-73.007461,,,0,
2009:1,,NYS 25A/Old Town Road,,40.941414,-73.10568,,,0,
44941,,Richmond Blvd/Mohican Ave,,40.823622,-73.142998,,,0,
45581,,Mount Ave/Cumberbach St,,40.739151,-73.355255,,,0,
3002:1,,Hulse Landing Rd/19th St,,40.95862000000001,-72.808417,,,0,
2532:1,,NYS 25/Youngs Ave,,41.064823,-72.42655999999998,,,0,
3290:1,,NYS 347/Willow Wood Dr,,40.902041,-73.07589,,,0,
3595:1,,Bay Shore Rd/Brook Ave,,40.742276,-73.307967,,,0,
3749:1,,Montauk Hwy/Islip Ave,,40.730163,-73.20708,,,0,
48201,,NYS 110/Melville Rd,,40.749054,-73.42229399999998,,,0,
2832:1,,Larkfield Rd/Colonial St,,40.842427,-73.314192,,,0,
1779:1,,E Main St/Kings Park Blvd,,40.884178,-73.249537,,,0,
3317:1,,Nugent St/Windmill Ln,,40.885836,-72.392094,,,0,
3920:1,,Middle Country Rd/Wading River Hollow Rd,,40.887237,-72.91825,,,0,
1163:1,,Belmont Ave/Claremont Ave,,40.724444,-73.34652199999998,,,0,
1286:1,,Montauk Hwy/Fleets Point Dr,,40.687711,-73.340903,,,0,
2824:1,,Montauk Hwy/Gillette Ave,,40.749842,-73.044621,,,0,
43451,,B Rd/H Rd,,40.7926,-73.287679,,,0,
3609:1,,Bay Shore Rd/Thompson Dr,,40.735188,-73.281332,,,0,
43361,,Long Island Ave/Commack Rd,,40.766096,-73.310284,,,0,
1961:1,,Middle Country Rd/Crescent Bow,,40.90178800000001,-72.863393,,,0,
1004:1,,Walt Whitman Shops,,40.819502,-73.40987,,,0,
47931,,Riverhead Plaza,,40.933467,-72.666417,,,0,
1501:1,,Montauk Hwy/Idle Hour Blvd,,40.74447,-73.141535,,,0,
46841,,Health Sciences Dr/Edmund D Pellegrino Rd,,40.906424,-73.110954,,,0,
4085:1,,Montauk Hwy/Phyllis Dr,,40.767202,-72.99507199999998,,,0,
3574:1,,Grand Blvd/Lake Dr,,40.75296,-73.353093,,,0,
3481:1,,Main St/N 23rd St,,40.757308,-73.37033099999998,,,0,
1746:1,,Middle Country Rd/Highway Pl,,40.857737,-73.165285,,,0,
3972:1,,Mooney Pond Rd/Brettonwoods Drive,,40.864326,-73.012175,,,0,
2616:1,,La Bonne Vie Dr/Gerri Ln,,40.792277,-72.977278,,,0,
3492:1,,Deer Park Ave/Long Island Ave,,40.762053,-73.329268,,,0,
1824:1,,Vets Hwy/Locust Ave,,40.786694,-73.118242,,,0,
3157:1,,Montauk Hwy/Blue Point Ave,,40.754304,-73.03760699999998,,,0,
3184:1,,Three Village Shopping Center,,40.937433,-73.1102,,,0,
3600:1,,Manor Ln/Howells Rd,,40.73294,-73.279767,,,0,
3294:1,,NYS 112/Pauls Path,,40.860565,-72.998834,,,0,
47681,,Brentwood LIRR,,40.780974,-73.243534,,,0,
3907:1,,NYS 25A/Broadway,,40.947348,-72.923955,,,0,
2821:1,,Montauk Hwy/Oak Neck Rd,,40.697128,-73.28426399999998,,,0,
2063:1,,Mather Hospital,,40.939073,-73.055564,,,0,
3366:1,,Nugent St/Windmill Ln,,40.88598300000001,-72.392189,,,0,
47521,,NYS 25/Skunk Ln,,41.03029,-72.466426,,,0,
43371,,B Rd/H Rd,,40.79276,-73.287644,,,0,
2185:1,,Sound Ave/Hulse Landing Rd,,40.949895,-72.80217399999998,,,0,
48071,,Suffolk County Dennison Bldg,,40.82111,-73.222774,,,0,
3391:1,,NYS 110/Railroad Ave,,40.680512,-73.416858,,,0,
1825:1,,NYS 25A/Maple Pl,,40.943764,-73.067276,,,0,
2716:1,,NYS 110/Old Country Rd,,40.793039,-73.4157,,,0,
3427:1,,Albany Ave/Sprauge Ave,,40.68499,-73.415223,,,0,
2227:1,,W Main St/Winters Ln,,40.91750300000001,-72.67920599999998,,,0,
47961,,NYS 110/Hill Pl,,40.880639,-73.42103,,,0,
3188:1,,Circle Rd/Kelly Dr,,40.91368400000001,-73.129838,,,0,
48091,,NYS 110/Overhill Rd,,40.811859,-73.409925,,,0,
1278:1,,Deer Park Ave/Nicolls Rd,,40.765875,-73.3309,,,0,
3468:1,,Southampton Hospital,,40.885908,-72.380578,,,0,
2825:1,,Montauk Hwy/Bayport Ave,,40.747189,-73.05117199999998,,,0,
47731,,Central Islip LIRR,,40.791616,-73.196493,,,0,
1386:1,,College Plaza,,40.865811,-73.048407,,,0,
2360:1,,Montauk Hwy/Lake Ave,,40.800333,-72.799072,,,0,
2746:1,,Wolf Hill Rd/New York Ave,,40.81337700000001,-73.40751299999998,,,0,
1948:1,,Middle Country Rd/N Howell Ave,,40.860046,-73.07276899999998,,,0,
3968:1,,Mooney Pond Rd/Wilson Ave,,40.854889,-73.032836,,,0,
44001,,Howells Rd/Fifth Ave,,40.729951,-73.261255,,,0,
1160:1,,Essex St/Belmont Ave,,40.734056,-73.34677499999998,,,0,
45161,,Joshuas Path/Motor Pkwy,,40.80255300000001,-73.217505,,,0,
1255:1,,E Jericho Tpk/Poplar Ave,,40.828077,-73.403718,,,0,
1025:1,,NYS 110/Sherwood Ave,,40.744022,-73.42253599999998,,,0,
2925:1,,Middle Country Rd/Tudor Ln,,40.883897,-72.93914599999998,,,0,
48241,,Sunrise Hwy S Service Rd/Broadway Ave,,40.768097,-73.064483,,,0,
1026:1,,NYS 110/Conklin St,,40.739942,-73.422889,,,0,
3734:1,,Second Ave/Broadway,,40.77905100000001,-73.227948,,,0,
44931,,Granny Rd/N Ocean Ave,,40.834674,-73.021772,,,0,
4105:1,,Station Rd/Martha Ave,,40.78649200000001,-72.946871,,,0,
3148:1,,NYS 25A/Hallock Landing Rd,,40.945515,-72.94060899999998,,,0,
2273:1,,Waverly Ave/E 7th St,,40.771815,-73.027565,,,0,
1334:1,,Straight Path/46th St,,40.699187,-73.389768,,,0,
1705:1,,Broadway Ave/Church St,,40.770194,-73.06651599999998,,,0,
2117:1,,NYS 112/E Lakewood St,,40.773168,-73.00745999999998,,,0,
1520:1,,Jericho Tpk/Calvert Ave,,40.84087,-73.30997,,,0,
48341,,Carleton Ave/Jefferson St,,40.73830800000001,-73.192071,,,0,
1798:1,,Middle Country Rd/Cambon Pl,,40.861298,-73.142765,,,0,
3284:1,,Montauk Hwy/Manor Ln,,40.700727,-73.277208,,,0,
2550:1,,Flanders Rd/Maple Ave S,,40.909383,-72.626455,,,0,
4072:1,,Patchogue LIRR,,40.76157400000001,-73.015232,,,0,
47811,,Riverhead LIRR,,40.919497,-72.667424,,,0,
2098:1,,NYS 112/Horseblock Rd,,40.826567,-72.994983,,,0,
3961:1,,Portion Rd/University Dr,,40.834274,-73.073768,,,0,
4172:1,,Mastic Rd/Patchogue Ave,,40.801364,-72.84057799999998,,,0,
2020:1,,Terryville Rd (100),,40.92767400000001,-73.053245,,,0,
3436:1,,Albany Ave/New Hwy,,40.708967,-73.402672,,,0,
2080:1,,Port Plaza,,40.919618,-73.040233,,,0,
44991,,Ocean Ave/Woodlawn Ave,,40.818264,-73.12569499999998,,,0,
2167:1,,N Columbia St/Highlands Blvd,,40.93405400000001,-73.045584,,,0,
3377:1,,Montauk Hwy/Springville Rd,,40.876844,-72.529625,,,0,
2377:1,,Station Rd/Sills Rd,,40.808168,-72.95328,,,0,
46471,,Brentwood Rd/Tillie St,,40.73587,-73.23784,,,0,
1367:1,,Moreland Rd/Mall Dr,,40.814158,-73.270392,,,0,
48291,,Wheeler Rd/Schneider Ln,,40.810064,-73.216937,,,0,
1956:1,,Middle Country Rd/Park Ln,,40.877825,-72.966403,,,0,
1037:1,,NYS 110/South Dr,,40.689492,-73.42025599999998,,,0,
2062:1,,Terryville Rd/University Dr,,40.918129,-73.051938,,,0,
3548:1,,Grand Blvd/W Jefryn Blvd,,40.761469,-73.300908,,,0,
46011,,Johnson Ave/Aimee Ln,,40.771739,-73.092163,,,0,
2143:1,,Hawkins Ave/Division Rd,,40.82387400000001,-73.107608,,,0,
47061,,Independence Plaza,,40.86605200000001,-73.049919,,,0,
3008:1,,Waverly Ave/Expwy Dr N,,40.82228400000001,-73.046057,,,0,
3797:1,,Cohalan Court Complex,,40.762152,-73.193456,,,0,
1455:1,,Montauk Hwy/S Penataquit Ave,,40.72567500000001,-73.237634,,,0,
44711,,Nob Hill South,,40.822838,-73.146728,,,0,
2891:1,,Church St/Lincoln Ave,,40.7706,-73.0835,,,0,
43911,,Motor Pkwy/Thomas St,,40.80588,-73.264415,,,0,
48561,,Bay Shore LIRR,,40.724331,-73.252364,,,0,
1036:1,,NYS 110/Smith St (S),,40.69250000000001,-73.422222,,,0,
3893:1,,NYS 25A/Miller Place Rd,,40.941672,-72.98903,,,0,
3340:1,,N Sea Rd/Hillcrest Ave,,40.894467,-72.397583,,,0,
2287:1,,Montauk Hwy/James Hawkins Rd,,40.804683,-72.815617,,,0,
46851,,NYS 347/New Moriches Rd,,40.870387,-73.129084,,,0,
1379:1,,Straight Path/Herzel Blvd,,40.717275,-73.380194,,,0,
3178:1,,Aldersgate/Lois Ct,,40.939861,-72.674606,,,0,
2229:1,,Carleton Ave/Union Blvd,,40.734767,-73.191563,,,0,
45461,,Griffing Ave/W 2nd St,,40.91840100000001,-72.664869,,,0,
2194:1,,NYS 25A/Broadway,,40.94748400000001,-72.924038,,,0,
1364:1,,Oser Ave/Plant Ave,,40.816775,-73.24294999999998,,,0,
46921,,Sycamore Ln/E Suffolk Ave,,40.796307,-73.177113,,,0,
4057:1,,Patchogue-Holbrook Rd/Springmeadow Dr (S),,40.793573,-73.055869,,,0,
1377:1,,Straight Path/Edison Ave,,40.735842,-73.370292,,,0,
4055:1,,Patchogue-Holbrook Rd/Somerset Dr,,40.79985400000001,-73.064732,,,0,
47441,,Middle Country Rd/Currans Rd,,40.885563,-72.932483,,,0,
2831:1,,Larkfield Rd/Clay Pitts Rd,,40.86460000000001,-73.321128,,,0,
4054:1,,Main St/Furrows Rd,,40.807863,-73.074763,,,0,
2892:1,,Church St/Raft Ave,,40.770837,-73.071236,,,0,
2402:1,,Montauk Hwy/Carman Blvd,,40.78693100000001,-72.917233,,,0,
2448:1,,Brentwood State Park,,40.790008,-73.272121,,,0,
48101,,Brook Ave/Mildred St,,40.737297,-73.249799,,,0,
47031,,Motor Pkwy/Hoffman Ln,,40.812709,-73.18629799999998,,,0,
1410:1,,Terryville Rd/Whitman Ave,,40.914713,-73.051721,,,0,
47251,,Middle Rd/Nadel Dr,,40.93729,-72.675191,,,0,
3556:1,,Deer Park Ave/Lake Ave,,40.75935,-73.328134,,,0,
45481,,E Main St/Old Country Rd,,40.936085,-72.649635,,,0,
2065:1,,Myrtle Ave/NYS 25A,,40.940926,-73.06465799999998,,,0,
43391,,Calebs Path/Lexington Ave,,40.799105,-73.227789,,,0,
44971,,Ocean Ave/Express Dr S,,40.81075400000001,-73.124657,,,0,
45911,,Old Willets Path/W Jericho Tpk,,40.846659,-73.234084,,,0,
3594:1,,Bay Shore Rd/Brook Ave,,40.74216,-73.308144,,,0,
44821,,SUNY Empire State College,,40.849907,-73.048579,,,0,
2238:1,,N Wading River Rd/Hulse Ave,,40.965789,-72.81668999999998,,,0,
3131:1,,Bridgehampton Sag Harbor Tpk/Huntington Cross Way,,40.95983300000001,-72.299152,,,0,
2077:1,,NYS 112/Wyckoff Ave,,40.927621,-73.04956799999998,,,0,
2169:1,,NYS 25A/Crystal Brook Hollow Rd,,40.933057,-73.03526599999998,,,0,
47121,,Middle Country Rd/Old Saddle Rd,,40.904417,-72.856851,,,0,
2723:1,,NYS 110/Walt Whitman Rd,,40.76847200000001,-73.42379699999998,,,0,
43951,,Marcus Dr/Republic Rd,,40.758838,-73.414872,,,0,
3020:1,,Mastic Beach Rd/Washington Ave,,40.772878,-72.845339,,,0,
1195:1,,Executive Dr/Long Island Ave,,40.77232200000001,-73.291633,,,0,
2724:1,,NYS 110/Spagnoli Rd,,40.762378,-73.423336,,,0,
4113:1,,Station Rd/S Country Rd,,40.75735800000001,-72.93955099999998,,,0,
1757:1,,St Johnland Rd/Monroe St,,40.877714,-73.219459,,,0,
45641,,Half Hollow Rd/Woods End Rd N,,40.79585800000001,-73.362538,,,0,
1690:1,,Vets Hwy/Connetquot Ave,,40.792913,-73.167036,,,0,
4050:1,,Union Ave/Sloan Dr,,40.81128,-73.09694,,,0,
45211,,Sound Ave/Fresh Pond Ave,,40.953884,-72.78966,,,0,
1300:1,,E Jericho Tpk/Cooper Ave,,40.83527,-73.37678,,,0,
4047:1,,Middle Country Rd/Mc Gaw Ave,,40.859237,-73.108279,,,0,
1062:1,,Arnold Ave/Anchor Ct,,40.701183,-73.347337,,,0,
46341,,Great East Neck Rd/Pratt St,,40.688848,-73.344433,,,0,
1639:1,,Brentwood Rd/Kentucky Ave,,40.750185,-73.242864,,,0,
43491,,Executive Dr (100),,40.774167,-73.292164,,,0,
2999:1,,NYS 25A/Pipe Stave Hollow Rd,,40.940745,-72.999045,,,0,
3288:1,,Carleton Ave/Gullhaven Dr,,40.773911,-73.198471,,,0,
3168:1,,Merrick Rd/S Bayview Ave,,40.668883,-73.40906699999998,,,0,
1749:1,,E Main St/Plaza Dr,,40.856193,-73.18366899999998,,,0,
4186:1,,Neighborhood Rd/Jefferson Dr,,40.765108,-72.843225,,,0,
45501,,NYS 110/Tuthill St,,40.859203,-73.417824,,,0,
2011:1,,NYS 25A/Deering St,,40.943559,-73.098939,,,0,
48501,,Brookhaven Landfill,,40.80109,-72.923875,,,0,
2791:1,,Straight Path/Ralph Ave,,40.695246,-73.392103,,,0,
3689:1,,Oser Ave/Marcus Blvd,,40.817166,-73.246731,,,0,
44311,,Essex St/Belmont Ave,,40.734141,-73.346856,,,0,
1477:1,,Montauk Hwy/Bernice Dr,,40.7467,-73.055083,,,0,
3934:1,,NYS 25A/Rocky Point Landing Rd,,40.94679,-72.929496,,,0,
43601,,Laurel Rd/Fort Salonga Rd,,40.89275,-73.33663,,,0,
2848:1,,Joshuas Path/Ralph Ave,,40.793608,-73.219417,,,0,
2209:1,,NYS 25A/Crystal Brook Hollow Rd,,40.933129,-73.034014,,,0,
44121,,Verts Hwy/Motor Pkwy,,40.813181,-73.18995099999998,,,0,
4058:1,,Patchogue-Holbrook Rd/Greenbelt Pkwy,,40.789848,-73.049313,,,0,
46041,,Commack Rd/Daly Rd,,40.821462,-73.293301,,,0,
2061:1,,Terryville Rd/Viceroy Pl,,40.909827,-73.05096399999998,,,0,
47971,,W Main St/Brooksite Dr,,40.85658,-73.204057,,,0,
45431,,Bridgehampton Sag Harbor Tpk/Lumber Ln,,40.938447,-72.30073,,,0,
1217:1,,Grand Blvd/Elk St,,40.752506,-73.35131199999998,,,0,
3829:1,,Montauk Hwy/Alan St,,40.735027,-73.173545,,,0,
1683:1,,Vets Hwy/Tern Pl,,40.834948,-73.267511,,,0,
1725:1,,Vets Hwy/Alexander Blvd,,40.78718400000001,-73.124902,,,0,
3013:1,,Sequoya High School,,40.793154,-73.043322,,,0,
2952:1,,Circle Rd/Engineering Dr,,40.911106,-73.126486,,,0,
2136:1,,Portion Rd/Ave B,,40.833611,-73.077393,,,0,
32191,,Bay Shore LIRR,,40.724394,-73.252188,,,0,
45071,,Granny Rd/Allegheny Dr E,,40.836722,-73.016633,,,0,
2192:1,,NYS 25A/Miller Ave,,40.946182,-72.89411699999998,,,0,
47241,,Montauk Hwy/Gazzola Dr,,40.76937800000001,-72.970746,,,0,
2276:1,,Middle Country Rd/Boyle Rd,,40.863853,-73.048466,,,0,
3555:1,,Grand Blvd/E 1st St,,40.757497,-73.32674799999998,,,0,
2129:1,,Hawkins Ave/Church St,,40.816912,-73.107991,,,0,
4082:1,,Main St/Grundy Ave,,40.810018,-73.077483,,,0,
46821,,Belle Terre Rd/Princess Tree Ct,,40.943645,-73.057235,,,0,
3493:1,,Grand Blvd/Deer Park Ave,,40.757314,-73.326723,,,0,
4302:1,,NYS 110/Fairview St,,40.868372,-73.425742,,,0,
1056:1,,E John St/Irmisch Ave,,40.689735,-73.370919,,,0,
1291:1,,Montauk Hwy/Belton Rd,,40.694378,-73.330347,,,0,
4028:1,,College Rd/Spruceton St,,40.857372,-73.04671399999998,,,0,
1034:1,,NYS 110/Jefferson Ave,,40.698278,-73.42554199999998,,,0,
48551,,Bay Shore LIRR,,40.724484,-73.251917,,,0,
1572:1,,Joshuas Path/Commercial Blvd,,40.798678,-73.218261,,,0,
43171,,Riverhead LIRR,,40.919453,-72.667962,,,0,
46211,,Commack Rd/Genesee Dr,,40.83667,-73.294783,,,0,
3333:1,,Main St/Washington St,,41.00031700000001,-72.295428,,,0,
3319:1,,Southampton Hospital,,40.885642,-72.38104199999998,,,0,
44211,,US District Court,,40.758138,-73.19150399999998,,,0,
48181,,Babylon LIRR,,40.70057400000001,-73.323576,,,0,
2666:1,,NYS 347/Mt Pleasant Rd,,40.836531,-73.18534,,,0,
1818:1,,Railroad Ave/NW Link,,40.808289,-73.111268,,,0,
2163:1,,NYS 347/Old Town Rd,,40.909836,-73.064031,,,0,
2889:1,,Vets Hwy/Connetquot Ave,,40.793368,-73.16724499999998,,,0,
1800:1,,Hawkins Ave/Williams Blvd,,40.856831,-73.114273,,,0,
2997:1,,NYS 25A/Radio Ave,,40.944169,-72.969183,,,0,
4301:1,,NYS 110/Main St,,40.87142200000001,-73.426233,,,0,
2303:1,,William Floyd Pkwy/Linden Ave,,40.789497,-72.8643,,,0,
2731:1,,NYS 110/Jefferson Ave,,40.69811700000001,-73.425847,,,0,
47231,,Havenwood Dr E/William Floyd Pkwy,,40.760382,-72.870206,,,0,
1598:1,,Brentwood Rd/Moffitt Blvd,,40.731456,-73.236103,,,0,
44851,,Seymour Ave/W Yaphank Rd,,40.85813000000001,-72.977994,,,0,
1661:1,,Brentwood Rd/Fourth St,,40.767269,-73.24611899999998,,,0,
3204:1,,Yaphank Correctional Facility,,40.817413,-72.920811,,,0,
48141,,Country Pointe Meadows,,40.845145,-72.902798,,,0,
2967:1,,NYS 112/Kensington Gate,,40.885836,-73.012037,,,0,
3426:1,,Albany Ave/Sunrise Hwy (N),,40.688485,-73.413449,,,0,
3077:1,,NYS 25/9th St,,41.100068,-72.371401,,,0,
1679:1,,Jericho Tpk/Larkfield Rd,,40.840176,-73.314947,,,0,
1791:1,,E Main St/Landing Ave,,40.855745,-73.191126,,,0,
3224:1,,Motor Pkwy/LIE S Service Rd,,40.80580900000001,-73.233469,,,0,
43421,,Rabro Dr/Constance Ct,,40.812542,-73.224611,,,0,
47631,,Brentwood LIRR,,40.78060700000001,-73.245161,,,0,
2552:1,,Flanders Rd/Longneck Blvd,,40.90389600000001,-72.60535,,,0,
1526:1,,Commack Rd/Hauppauge Rd,,40.828232,-73.293227,,,0,
2528:1,,NYS 25/Village Ln,,41.14275700000001,-72.302026,,,0,
2674:1,,Neighborhood Rd/Flower Rd,,40.761426,-72.86233,,,0,
44361,,Half Hollow Rd/Lone Hill Pl,,40.796667,-73.367377,,,0,
1812:1,,Rosevale Ave/Kirk Ave,,40.82284400000001,-73.127896,,,0,
2142:1,,Hawkins Ave/Lakewood Rd,,40.820642,-73.107784,,,0,
2533:1,,NYS 25/Wells Ave,,41.063707,-72.429259,,,0,
48131,,Vets Hwy/Ocean Ave,,40.787086,-73.121708,,,0,
2084:1,,NYS 112/Industrial Rd,,40.903807,-73.025327,,,0,
2224:1,,Fresh Pond Ave/South Path,,40.933028,-72.775509,,,0,
2362:1,,Montauk Hwy/Bay Ave,,40.800039,-72.771286,,,0,
3097:1,,Montauk Hwy/Newlight Ln,,40.928128,-72.327689,,,0,
2559:1,,North Hwy/Boathouse Rd,,40.894652,-72.474273,,,0,
2108:1,,NYS 112/Shaber Rd,,40.787453,-73.009201,,,0,
3994:1,,Middle Country Rd/Lake Grove Blvd,,40.858243,-73.10316,,,0,
3024:1,,Montauk Hwy/Horseblock Rd,,40.794268,-72.906138,,,0,
1500:1,,Montauk Hwy/Great River Rd,,40.736084,-73.16808899999998,,,0,
1872:1,,Hawkins Ave/Washburn Ave,,40.852924,-73.114845,,,0,
45861,,Calebs Path/Nostrand Ave,,40.791556,-73.223028,,,0,
1424:1,,Montauk Hwy/Blue Point Ave,,40.753816,-73.03792,,,0,
2211:1,,Hulse Landing Rd/22nd St,,40.956613,-72.807111,,,0,
45561,,Belmont Ave/Arthur Ave,,40.71449900000001,-73.348046,,,0,
3863:1,,W Suffolk Ave/Allyn Ln,,40.78988600000001,-73.206024,,,0,
44601,,Circle Rd/Gymnasium Rd,,40.918036,-73.12957,,,0,
2258:1,,Waverly Ave/Division St,,40.827374,-73.046785,,,0,
4046:1,,Middle Country Rd/Wood Rd,,40.858486,-73.104042,,,0,
4311:1,,NYS 110/E 13th St,,40.841903,-73.411931,,,0,
1027:1,,NYS 110/Fairchild Hiller Ln,,40.732072,-73.423389,,,0,
1881:1,,Old Country Rd/Tanger Mall Dr,,40.923033,-72.711097,,,0,
2350:1,,E Montauk Hwy/Canoe Place Rd,,40.883173,-72.507457,,,0,
1524:1,,Commack Rd/Dorothea St,,40.839501,-73.293948,,,0,
47111,,Montauk Hwy/NYS 112,,40.766031,-73.00751,,,0,
1324:1,,Riverhead Centre (W),,40.925625,-72.694236,,,0,
2243:1,,Mooney Pond Rd/Blue Point Rd,,40.854424,-73.033935,,,0,
2324:1,,Nichols Rd/Townline Rd,,40.828883,-73.148674,,,0,
3311:1,,Portion Rd/Warren Ave,,40.835209,-73.068458,,,0,
48371,,Motor Pkwy/McArthur Blvd,,40.80564,-73.19488,,,0,
3150:1,,Middle Country Rd/Robin Dr,,40.88031200000001,-72.956368,,,0,
4102:1,,Station Rd/Tie St,,40.800087,-72.950973,,,0,
2739:1,,N Wellwood Ave/W Hoffman Ave,,40.687117,-73.37396,,,0,
44651,,NYS 347/Hallock Rd,,40.872993,-73.124523,,,0,
1946:1,,Middle Country Rd/Holbrook Rd,,40.858312,-73.08176899999998,,,0,
1459:1,,Montauk Hwy/S Clinton Ave,,40.718702,-73.253226,,,0,
1066:1,,Montauk Hwy/Little East Neck Rd N,,40.692706,-73.33446,,,0,
1314:1,,NYS 110/Fairchild Hiller Ln,,40.731614,-73.423856,,,0,
47171,,N Wading River Rd/Cambridge Ct,,40.958591,-72.839743,,,0,
3502:1,,Grand Blvd/W Jefryn Blvd,,40.76131500000001,-73.300866,,,0,
4303:1,,NYS 110/Fairmont St,,40.864478,-73.422886,,,0,
2158:1,,Pond Path/Sunflower Ridge Rd,,40.882614,-73.102693,,,0,
2191:1,,NYS 25A/East St,,40.945595,-72.888561,,,0,
3448:1,,Montauk Hwy/Chestnut St,,40.676797,-73.36796699999998,,,0,
2460:1,,Deer Park LIRR,,40.769445,-73.293341,,,0,
3187:1,,Bay Shore Rd/Commack Rd,,40.747229,-73.318798,,,0,
3176:1,,Aldersgate (N),,40.944929,-72.679074,,,0,
2096:1,,Brookhaven Executive Center,,40.84275,-72.996617,,,0,
4271:1,,W Main St/Kroemer Ave,,40.915931,-72.706269,,,0,
1805:1,,W Main St/Tanger Mall Dr,,40.916892,-72.713086,,,0,
45711,,Nicolls Rd/Western Ave,,40.762993,-73.344172,,,0,
2170:1,,NYS 25A/Highland Ave,,40.93412,-73.024423,,,0,
46861,,Hawkins Ave/Sycamore Ave,,40.849416,-73.114528,,,0,
46131,,Middleville Rd/Veterans Memorial Dr,,40.898845,-73.314373,,,0,
2668:1,,NYS 347/Sequoia Dr,,40.831998,-73.194896,,,0,
44181,,Lowell Ave/Eastview Dr,,40.780008,-73.190313,,,0,
3877:1,,NYS 347/Hallock Rd,,40.873379,-73.122975,,,0,
2070:1,,NYS 25A (158),,40.93941,-73.10954099999998,,,0,
46971,,SUNY Empire State College,,40.84982500000001,-73.04839699999998,,,0,
1081:1,,E John St/Grand Ave,,40.69796,-73.360522,,,0,
1726:1,,Vets Hwy/Louis Kossuth Ave,,40.787496,-73.129292,,,0,
2984:1,,NYS 347/Arrowhead Ln,,40.904227,-73.073096,,,0,
1696:1,,Vets Hwy/Locust Ave,,40.78633700000001,-73.118016,,,0,
2951:1,,Circle Rd/Tabler Dr,,40.910422,-73.124636,,,0,
2255:1,,Horseblock Rd/Blue Point Rd,,40.832112,-73.03457,,,0,
44761,,Middle Country Rd/Paul's Path Mooney Pond Rd,,40.868705,-73.009387,,,0,
1346:1,,Straight Path/Mount Ave,,40.748756,-73.363212,,,0,
1753:1,,W Main St/Arthur Dr,,40.857547,-73.20742,,,0,
1114:1,,Deer Park Ave/Oakland Ave,,40.751687,-73.325253,,,0,
3480:1,,Wheatley Heights Shopping Center,,40.75701500000001,-73.37569,,,0,
45781,,Suffolk Ave/Lukens Ave,,40.779614,-73.252869,,,0,
2088:1,,NYS 112/Kensington Gate,,40.885666,-73.011694,,,0,
3858:1,,E Suffolk Ave/Sycamore Ave,,40.795679,-73.177212,,,0,
1650:1,,Suffolk Ave/Willoughby St,,40.78438400000001,-73.232511,,,0,
1640:1,,Brentwood Rd/Colorado Ave,,40.745668,-73.24111,,,0,
1029:1,,NYS 110/Del Dr,,40.718892,-73.425878,,,0,
3755:1,,Montauk Hwy/Rose Ct,,40.734652,-73.174516,,,0,
2878:1,,Brentwood Rd/Third Ave,,40.776589,-73.24626499999998,,,0,
46641,,Vets Hwy/MacArthur Blvd,,40.81613,-73.194557,,,0,
45031,,Motor Pkwy/Computer Associates Plaza,,40.813197,-73.172937,,,0,
46001,,Jericho Tpk/Commack Rd,,40.842525,-73.291679,,,0,
1442:1,,Montauk Hwy/E Shore Rd,,40.73935500000001,-73.123463,,,0,
1599:1,,Brentwood Rd/Tillie St,,40.735622,-73.237575,,,0,
45961,,Wicks Rd/Mindres Ave,,40.78406600000001,-73.26229499999998,,,0,
2037:1,,W Yaphank Rd/Norfleet Ln,,40.865119,-72.977084,,,0,
2933:1,,Middle Country Rd/Magnolia Dr,,40.865387,-73.04197,,,0,
45771,,5th Ave/Pine Aire Dr,,40.77690900000001,-73.259718,,,0,
2491:1,,College Rd/Mooney Pond Rd,,40.851351,-73.04573499999998,,,0,
4235:1,,Neighborhood Rd/Jefferson Dr,,40.764914,-72.843494,,,0,
44471,,Montauk Hwy/Willow St,,40.697035,-73.319455,,,0,
24281,,Technology Dr/Research Way,,40.899772,-73.087297,,,0,
3084:1,,NYS 25/Laurel Ln,,40.96487900000001,-72.56537299999998,,,0,
1095:1,,Wolf Hill Rd/Jayne Ave,,40.812287,-73.400316,,,0,
2808:1,,Montauk Hwy/La Salle Pl,,40.73261500000001,-73.113468,,,0,
46181,,Laurel Rd/Dickinson Ave,,40.887494,-73.331162,,,0,
3750:1,,Montauk Hwy/Suffolk Ln,,40.730275,-73.19807,,,0,
47871,,Patchogue LIRR,,40.761752,-73.013953,,,0,
1739:1,,Vets Hwy/Sunken Meadow Pkwy,,40.840856,-73.28464,,,0,
47041,,Waverly Ave/Cassa Loop,,40.81021,-73.043937,,,0,
43331,,South Bay Shopping Center,,40.68518000000001,-73.348592,,,0,
1094:1,,Wolf Hill Rd/New York Ave,,40.81351,-73.40746,,,0,
3143:1,,Riverhead Centre (E),,40.926411,-72.690331,,,0,
43711,,NYS 109/Straight Path,,40.714241,-73.380684,,,0,
48321,,Court House Dr/2nd St,,40.764235,-73.195076,,,0,
3688:1,,Oser Ave/Adams Ave,,40.816491,-73.256339,,,0,
3807:1,,Carleton Ave/Union Blvd,,40.734854,-73.19146,,,0,
3747:1,,Montauk Hwy/Smith Ave,,40.728696,-73.215523,,,0,
1461:1,,Montauk Hwy/S Windsor Ave,,40.713454,-73.258212,,,0,
1716:1,,Montauk Hwy/Waverly Ave,,40.764056,-73.024565,,,0,
4127:1,,Sills Rd/Hospital Rd,,40.775317,-72.977562,,,0,
2421:1,,NYS 25A/E Broadway,,40.946588,-73.069147,,,0,
47861,,Patchogue LIRR,,40.76172,-73.014169,,,0,
2725:1,,NYS 110/Ruland Rd,,40.758383,-73.422397,,,0,
3374:1,,Southampton Town Hall,,40.88778,-72.386604,,,0,
2985:1,,N Columbia St/Highlands Blvd,,40.934308,-73.04549299999998,,,0,
47821,,Patchogue LIRR,,40.761607,-73.01501399999998,,,0,
1284:1,,Montauk Hwy/S Carll Ave,,40.695667,-73.326036,,,0,
2019:1,,NYS 25A/Sheep Pasture Rd,,40.935975,-73.056256,,,0,
1495:1,,Montauk Hwy/Lawrence Ln,,40.715936,-73.256474,,,0,
44731,,Ocean Ave/Ontario St,,40.81817,-73.126002,,,0,
1194:1,,Heartland Blvd/Mercedes Way,,40.782303,-73.284853,,,0,
44801,,Granny Rd/Mill Rd,,40.850414,-72.974448,,,0,
1878:1,,Montauk Hwy/Woodland Dr,,40.731197,-73.190104,,,0,
3618:1,,Deer Park Ave/Prairie Dr,,40.747375,-73.323924,,,0,
2079:1,,NYS 112/Rose Ln,,40.92373700000001,-73.046194,,,0,
1460:1,,Montauk Hwy/Hemlock Ln,,40.71608100000001,-73.256608,,,0,
45651,,Carman Rd/Melrose Rd,,40.800031,-73.378893,,,0,
3079:1,,NYS 25/Wells Ave,,41.06373700000001,-72.42955499999998,,,0,
2322:1,,Montauk Hwy/N Dunton Ave,,40.770537,-72.963481,,,0,
47301,,Mill Rd/Middle Rd,,40.934148,-72.704755,,,0,
2977:1,,NYS 112/E Woodside Ave,,40.793754,-73.007488,,,0,
1290:1,,Montauk Hwy/Melbury Rd,,40.693886,-73.331833,,,0,
2655:1,,Neighborhood Rd/Overlook Dr,,40.763981,-72.849611,,,0,
1765:1,,Flanders Rd/Enterprise Zone Dr,,40.913908,-72.653081,,,0,
3919:1,,Middle Country Rd/Smith Rd,,40.890653,-72.903975,,,0,
2887:1,,Vets Hwy/Wyandanch Blvd,,40.832636,-73.259392,,,0,
4277:1,,Old Country Rd/Gatewood,,40.924671,-72.69895,,,0,
1653:1,,Second Ave/Brentwood Rd,,40.77826000000001,-73.245349,,,0,
45981,,NYS 110/Sprucetree Ln,,40.823656,-73.41226,,,0,
1550:1,,Clinton Ave/Cooper Ln,,40.721192,-73.255622,,,0,
1801:1,,Hawkins Ave/Washburn Ave,,40.85286,-73.115039,,,0,
3964:1,,College Rd/Highland Pl,,40.84062200000001,-73.054652,,,0,
48281,,Wheeler Rd/Express Dr N,,40.809871,-73.217298,,,0,
2155:1,,Montauk Hwy/Athasca Rd,,40.72801900000001,-73.222967,,,0,
3649:1,,Washington Ave/Mcwhorter St,,40.782142,-73.246052,,,0,
1456:1,,Montauk Hwy/Mowbray Pl,,40.724733,-73.24126,,,0,
1863:1,,Johnson Ave/Pond Rd,,40.80764,-73.120344,,,0,
3078:1,,NYS 25/Youngs Ave,,41.064983,-72.42655,,,0,
3100:1,,Old Country Rd/Roanoke Ave,,40.932251,-72.676401,,,0,
46271,,NYS 109/Elmwood Rd,,40.706629,-73.34996,,,0,
3854:1,,Old Nichols Rd/S Connecting Rd,,40.807672,-73.16119,,,0,
1184:1,,Washington Ave/Harrison St,,40.80229400000001,-73.24835,,,0,
44751,,Ocean Ave/Express Dr S,,40.811152,-73.125034,,,0,
47621,,Brentwood LIRR,,40.780513,-73.24557,,,0,
47741,,Central Islip LIRR,,40.791653,-73.196281,,,0,
48451,,Northville Tpk/East Ave,,40.920982,-72.662297,,,0,
3939:1,,Captree State Park Fishing Basin,,40.641554,-73.255065,,,0,
3717:1,,Broadway/Stahley St,,40.761158,-73.22456,,,0,
3712:1,,Broadway/Dickman St,,40.778833,-73.22713299999998,,,0,
2896:1,,Middle Country Rd/Lake Ave,,40.860749,-73.154027,,,0,
1276:1,,Deer Park Ave/Claremont St,,40.773333,-73.33438099999998,,,0,
45271,,NYS 25A/Patchogue-Mt Sinai Rd,,40.938034,-73.01100099999998,,,0,
2076:1,,NYS 112/Cherub Ln,,40.93064900000001,-73.05246,,,0,
48301,,Crooked Hill Rd/St Andrews Dr,,40.785336,-73.26874599999998,,,0,
1411:1,,Terryville Rd/Whitman Ave,,40.914774,-73.051581,,,0,
2561:1,,CR 39/Tuckahoe Rd,,40.891403,-72.440558,,,0,
1360:1,,Wheeler Rd/Rabro Dr,,40.813075,-73.21838099999998,,,0,
3532:1,,Brook Ave/W William St,,40.733773,-73.24675999999998,,,0,
1641:1,,Brentwood Rd/Arkansas Ave,,40.740981,-73.23962,,,0,
3596:1,,Bay Shore Rd/Arbour St,,40.740727,-73.30485299999998,,,0,
44781,,Granny Rd/N Ocean Ave,,40.834812,-73.020947,,,0,
44091,,Sunburst Blvd/Circle Dr,,40.777775,-73.195601,,,0,
4162:1,,Montauk Hwy/Camp Upton Rd,,40.801038,-72.869333,,,0,
2660:1,,N Wading River Rd/Hulse Ave,,40.965918,-72.8169,,,0,
4274:1,,W Main St/Tanger Mall Dr,,40.917058,-72.715056,,,0,
2549:1,,Flanders Rd/Cypress Ave,,40.910039,-72.63229699999998,,,0,
44031,,Ruland Rd/Baylis Rd,,40.766975,-73.407698,,,0,
2544:1,,Old Country Rd/Harrison Ave,,40.93073900000001,-72.679754,,,0,
1740:1,,Jericho Tpk/Eldorado Dr,,40.838675,-73.328698,,,0,
1848:1,,Montauk Hwy/Middle Rd,,40.737058,-73.08060999999998,,,0,
2281:1,,Montauk Hwy/Pine St,,40.804839,-72.76125399999998,,,0,
2994:1,,NYS 25A/Defense Hill Rd,,40.943923,-72.87210399999998,,,0,
2179:1,,River Rd/Splish Splash Dr,,40.92570700000001,-72.735476,,,0,
1174:1,,Deer Park Ave/Lake Ave,,40.759161,-73.3284,,,0,
2173:1,,W Main St/Raynor Ave,,40.91796,-72.676056,,,0,
1888:1,,Middle Country Rd/Wading River Manor Rd,,40.914349,-72.834393,,,0,
46051,,Larkfield Rd/Cedar Rd,,40.857251,-73.31868299999998,,,0,
1518:1,,Larkfield Rd/Shelbourne Ln,,40.842347,-73.313917,,,0,
39881,,Lindenhurst LIRR,,40.688228,-73.368458,,,0,
2885:1,,Jericho Tpk/Elwood Rd,,40.838035,-73.332402,,,0,
1511:1,,Larkfield Rd/Pulaski Rd,,40.877446,-73.324748,,,0,
1543:1,,Fifth Ave/Mcadam St,,40.757619,-73.262398,,,0,
1522:1,,Jericho Tpk/Valmont Ave,,40.842345,-73.300664,,,0,
1877:1,,Middle Country Rd/Wading River Hollow Rd,,40.886929,-72.91925999999998,,,0,
1694:1,,Vets Hwy/Sycamore Ave,,40.78686,-73.12484,,,0,
2250:1,,Nichols Rd/Eliot Dr,,40.853944,-73.12838,,,0,
1789:1,,W Main St/New York Ave,,40.855267,-73.198967,,,0,
2605:1,,Hawkins Ave/Win Pl,,40.84492800000001,-73.11377299999998,,,0,
2972:1,,NYS 112/Long Island Ave,,40.818008,-72.999885,,,0,
47221,,Montauk Hwy/Arthur Ave,,40.777887,-72.927473,,,0,
48471,,Moriches-Riverhead Rd/Eastport Manor Rd,,40.838242,-72.743014,,,0,
3482:1,,Nicolls Rd/N 18th St,,40.758063,-73.365727,,,0,
1761:1,,E Main St/Bonnie Gate,,40.883502,-73.23275,,,0,
44411,,Mount Ave/Wyandanch Ave,,40.741385,-73.357654,,,0,
3857:1,,E Suffolk Ave/Vets Hwy,,40.798226,-73.17399899999998,,,0,
47181,,NYS 25A/Echo Ave,,40.940455,-73.004006,,,0,
3951:1,,Hawkins Ave/Lakewood Rd,,40.821044,-73.107614,,,0,
1368:1,,Moreland Rd/Austin Blvd,,40.809689,-73.2704,,,0,
47431,,Middle Country Rd/Currans Rd,,40.88543,-72.932366,,,0,
3501:1,,Grand Blvd/The Arches Cir,,40.76163300000001,-73.303561,,,0,
1898:1,,Middle Country Rd/Robin Dr,,40.880446,-72.956581,,,0,
1372:1,,Straight Path/Commonwealth Dr,,40.753217,-73.361078,,,0,
43251,,Montauk Hwy/S Strong Ave,,40.671483,-73.38204899999998,,,0,
3394:1,,Dixon Ave/W Ranick Dr,,40.683465,-73.411672,,,0,
2732:1,,NYS 110/Bentley Rd,,40.694758,-73.423897,,,0,
1339:1,,Straight Path/Babylon Farmingdale Rd,,40.71491000000001,-73.381204,,,0,
47471,,NYS 25/Old Main Rd,,41.077215,-72.402567,,,0,
3218:1,,Carleton Ave/Hoppen Dr,,40.766037,-73.197366,,,0,
1370:1,,H Rd/E Rd,,40.793775,-73.284825,,,0,
47511,,NYS 25/Skunk Ln,,41.03065,-72.465919,,,0,
2105:1,,NYS 112/Park Ave,,40.796109,-73.00666,,,0,
46091,,Laurel Rd/Dickinson Ave,,40.887692,-73.33118,,,0,
3430:1,,Albany Ave/Sunrise Hwy (S),,40.687407,-73.413832,,,0,
2232:1,,NYS 347/Browns Rd,,40.854545,-73.145746,,,0,
43591,,Fort Salonga Rd/Soper Ave,,40.899166,-73.330929,,,0,
1911:1,,Middle Country Rd/Dare Rd,,40.866585,-73.035816,,,0,
3007:1,,Waverly Ave/Division St,,40.827062,-73.046856,,,0,
47581,,NYS 114/Coultes Ln,,40.97133500000001,-72.240222,,,0,
2135:1,,NYS 112/Crescent Dr,,40.930503,-73.052115,,,0,
2119:1,,NYS 112/Clark St,,40.781696,-73.008302,,,0,
47361,,The Big Duck,,40.907475,-72.62275699999998,,,0,
3584:1,,Deer Park Ave/Weeks Rd,,40.738927,-73.320588,,,0,
43321,,South Bay Shopping Center,,40.684915,-73.348956,,,0,
47691,,Brentwood LIRR,,40.781061,-73.243154,,,0,
2262:1,,Waverly Ave/Storm Dr,,40.804915,-73.043051,,,0,
3012:1,,Waverly Ave/Blue Point Rd W,,40.797877,-73.04317399999998,,,0,
1345:1,,Straight Path/Wyandanch Ave,,40.74145,-73.367031,,,0,
1558:1,,Fifth Ave/New Hampshire Ave,,40.759778,-73.261889,,,0,
2879:1,,Brentwood Rd/Sixth Ave,,40.773269,-73.246232,,,0,
2092:1,,NYS 112/3rd St,,40.863013,-72.999028,,,0,
3019:1,,Montauk Hwy/Louis Ave,,40.80773700000001,-72.824298,,,0,
45941,,Calebs Path/Franklin Ave,,40.80269100000001,-73.230331,,,0,
3308:1,,CR 51/Lake Ave,,40.89786200000001,-72.68073,,,0,
2880:1,,Brentwood Rd/Candlewood Rd,,40.764035,-73.246298,,,0,
2728:1,,NYS 110/Great Neck Rd (N),,40.712317,-73.428758,,,0,
3549:1,,Grand Blvd/Commack Rd,,40.761023,-73.311274,,,0,
2827:1,,Montauk Hwy/Broadway Ave,,40.747728,-73.067514,,,0,
2122:1,,NYS 112/Morris Ave,,40.792673,-73.007555,,,0,
2614:1,,Hospital Rd/La Bonne Vie Dr W,,40.789388,-72.979127,,,0,
47161,,Old Country Rd/Ostrander Ave,,40.934423,-72.66995799999998,,,0,
45671,,Half Hollow Rd/Woods End Rd N,,40.795639,-73.362174,,,0,
2189:1,,NYS 25A/Gateway Dr,,40.944078,-72.850329,,,0,
48081,,NYS 110/Overhill Rd,,40.812032,-73.409571,,,0,
4044:1,,Middle Country Rd/N Washington Ave,,40.858347,-73.08973,,,0,
1178:1,,Rabro Dr/Power Dr,,40.811022,-73.232614,,,0,
4263:1,,Peconic Bay Medical Center,,40.934234,-72.674745,,,0,
45141,,Middle Country Rd/Dawn Dr,,40.858444,-73.085524,,,0,
2699:1,,NYS 110/Tuthill St,,40.858912,-73.417601,,,0,
1735:1,,Wheeler Rd/Motor Pkwy,,40.803222,-73.21281999999998,,,0,
3931:1,,NYS 25A/Harding St,,40.948,-72.913267,,,0,
